Name,State,Latitude,Longitude,IT Load (MW),PUE,Website,Source URL
Resilience GSP,south-carolina,34.92548093782104,-82.16671935051278,400,,https://www.overwatchcap.com/resiliencegsp?utm_source=datacentermap.com,https://www.datacentermap.com/usa/south-carolina/greenville/resilience-gsp/
"DartPoints Greenville, SC - GSP01",south-carolina,34.8079545,-82.3445036,13.3,,https://dartpoints.com/locations/south-carolina2/?utm_source=datacentermap.com,https://www.datacentermap.com/usa/south-carolina/greenville/immedion/
DC BLOX Greenville,south-carolina,36.45663572314526,-111.621094,3,,https://www.dcblox.com/data-centers/greenville/?utm_source=datacentermap.com,https://www.datacentermap.com/usa/south-carolina/greenville/dcblox-gsp1/
"DartPoints Spartanburg, SC - SPA01",south-carolina,34.9965805,-82.0348432,13.6,,https://dartpoints.com/locations/south-carolina3/?utm_source=datacentermap.com,https://www.datacentermap.com/usa/south-carolina/spartanburg/immedion-greenville/
300 Jones Road,south-carolina,35.0154612,-81.88481039999999,60,,https://www.lighthousedatacenters.com/?utm_source=datacentermap.com,https://www.datacentermap.com/usa/south-carolina/spartanburg/300-jones-road/
Project Moc-1,south-carolina,34.92302915413012,-81.84993332938947,,,https://northmarkstrategies.com/?utm_source=datacentermap.com,https://www.datacentermap.com/usa/south-carolina/spartanburg/project-moc-1/
TigerDC SC1 Campus,south-carolina,34.864946,-82.028865,400,,https://tigerdc.com/data-center?utm_source=datacentermap.com,https://www.datacentermap.com/usa/south-carolina/spartanburg/tigerdc-sc1-campus/
TigerDC SC1 - Phase 1A,south-carolina,34.864429,-82.019328,,,https://tigerdc.com/data-center?utm_source=datacentermap.com,https://www.datacentermap.com/usa/south-carolina/spartanburg/tigerdc-sc1-phase-1a/
TigerDC SC1 - Phase 1B,south-carolina,34.867931,-82.017295,,,https://tigerdc.com/data-center?utm_source=datacentermap.com,https://www.datacentermap.com/usa/south-carolina/spartanburg/tigerdc-sc1-phase-1b/
TigerDC SC1 - Phase 3B,south-carolina,34.87149,-82.042866,,,https://tigerdc.com/data-center?utm_source=datacentermap.com,https://www.datacentermap.com/usa/south-carolina/spartanburg/tigerdc-sc1-phase-3b/
TigerDC SC1 - Phase 3E,south-carolina,34.870384,-82.039106,,,https://tigerdc.com/data-center?utm_source=datacentermap.com,https://www.datacentermap.com/usa/south-carolina/spartanburg/tigerdc-sc1-phase-3e/
TigerDC SC1 - Phase 2,south-carolina,34.86768,-82.031628,,,https://tigerdc.com/data-center?utm_source=datacentermap.com,https://www.datacentermap.com/usa/south-carolina/spartanburg/tigerdc-sc1-phase-2/
TigerDC SC1 - Phase 3A,south-carolina,34.872368,-82.038023,,,https://tigerdc.com/data-center?utm_source=datacentermap.com,https://www.datacentermap.com/usa/south-carolina/spartanburg/tigerdc-sc1-phase-3a/
TigerDC SC1 - Phase 3F,south-carolina,34.870062,-82.037827,,,https://tigerdc.com/data-center?utm_source=datacentermap.com,https://www.datacentermap.com/usa/south-carolina/spartanburg/tigerdc-sc1-phase-3f/
Lumen Spartanburg 1,south-carolina,34.9510212,-81.9320416,,,https://www.lumen.com/?utm_source=datacentermap.com,https://www.datacentermap.com/usa/south-carolina/spartanburg/level3-spartanburg1/
TigerDC SC1 - Phase 3D,south-carolina,34.870791,-82.040334,,,https://tigerdc.com/data-center?utm_source=datacentermap.com,https://www.datacentermap.com/usa/south-carolina/spartanburg/tigerdc-sc1-phase-3d/
TigerDC SC1 - Phase 3C,south-carolina,34.871125,-82.041581,,,https://tigerdc.com/data-center?utm_source=datacentermap.com,https://www.datacentermap.com/usa/south-carolina/spartanburg/tigerdc-sc1-phase-3c/
"DartPoints Columbia, SC - CAE01",south-carolina,33.987031,-81.030436,2,,https://dartpoints.com/locations/south-carolina1/?utm_source=datacentermap.com,https://www.datacentermap.com/usa/south-carolina/columbia-sc/immedion1/
ATOS Blythewood Data Center,south-carolina,34.1760877,-80.9725961,,,https://atos.net/en/services/cloud-and-infrastructure?utm_source=datacentermap.com,https://www.datacentermap.com/usa/south-carolina/columbia-sc/atos-blythewood-data-center/
771 Park Road,south-carolina,34.298403,-80.533965,,,https://terranxs.com/?utm_source=datacentermap.com,https://www.datacentermap.com/usa/south-carolina/columbia-sc/771-park-road/
Lumen Columbia,south-carolina,34.00396,-81.034727,,,https://www.lumen.com/en-us/home.html?utm_source=datacentermap.com,https://www.datacentermap.com/usa/south-carolina/columbia-sc/twtc-columbia/
Segra Columbia,south-carolina,34.0065064,-81.029897,,,https://www.segra.com/product/data-centers/?utm_source=datacentermap.com,https://www.datacentermap.com/usa/south-carolina/columbia-sc/spirit-telecom/
"DartPoints Charleston, SC - CHS01",south-carolina,32.9664769,-80.1109129,1.3,,https://dartpoints.com/locations/south-carolina4/?utm_source=datacentermap.com,https://www.datacentermap.com/usa/south-carolina/charleston/immedion-palmetto/
DC BLOX Charleston West,south-carolina,33.1322713,-80.26690649999999,180,1.3,https://www.dcblox.com/data-centers/berkeley-county-sc-hyperscale-data-center-campus/?utm_source=datacentermap.com,https://www.datacentermap.com/usa/south-carolina/charleston/dc-blox-charleston-west/
Elink Datacenter,south-carolina,32.73063151069019,-80.05915939807892,,,https://elinkcorp.com?utm_source=datacentermap.com,https://www.datacentermap.com/usa/south-carolina/charleston/elink-mc-datacenter/
Google Berkeley County - Building 8,south-carolina,33.06215289201604,-80.0396299032243,,,https://www.google.com/about/datacenters/locations/berkeley-county/?utm_source=datacentermap.com,https://www.datacentermap.com/usa/south-carolina/charleston/google-berkeley-county-building-8/
Google Berkeley County Campus,south-carolina,33.0637444,-80.0422667,,1.1,https://www.google.com/about/datacenters/locations/berkeley-county/?utm_source=datacentermap.com,https://www.datacentermap.com/usa/south-carolina/charleston/google-berkeley-county/
Google Berkeley County - Building 6,south-carolina,33.06190883544011,-80.04384902252706,,,https://www.google.com/about/datacenters/locations/berkeley-county/?utm_source=datacentermap.com,https://www.datacentermap.com/usa/south-carolina/charleston/google-berkeley-county-building-6/
Google Berkeley County - Building 10,south-carolina,33.06645333697374,-80.03836712844709,,,https://www.google.com/about/datacenters/locations/berkeley-county/?utm_source=datacentermap.com,https://www.datacentermap.com/usa/south-carolina/charleston/google-berkeley-county-building-10/
Google Berkeley County - Building 7,south-carolina,33.06202869524384,-80.04101177734057,,,https://www.google.com/about/datacenters/locations/berkeley-county/?utm_source=datacentermap.com,https://www.datacentermap.com/usa/south-carolina/charleston/google-berkeley-county-building-7/
Google Project Dawson,south-carolina,32.96223026873817,-80.30771548313285,,,https://www.google.com/about/datacenters/?utm_source=datacentermap.com,https://www.datacentermap.com/usa/south-carolina/charleston/google-project-dawson/
Project Evergreen,south-carolina,33.17773215622262,-80.5365251005398,,,https://www.datacenterdynamics.com/en/news/google-to-invest-9bn-in-south-carolina-data-centers/?utm_source=datacentermap.com,https://www.datacentermap.com/usa/south-carolina/charleston/project-evergreen/
Google Berkeley County - Building 4,south-carolina,33.06430272947466,-80.03842412027537,,,https://www.google.com/about/datacenters/locations/berkeley-county/?utm_source=datacentermap.com,https://www.datacentermap.com/usa/south-carolina/charleston/google-berkeley-county-building-4/
Google Berkeley County - Building 1,south-carolina,33.06445782780388,-80.04613012017927,,,https://www.google.com/about/datacenters/locations/berkeley-county/?utm_source=datacentermap.com,https://www.datacentermap.com/usa/south-carolina/charleston/google-berkeley-county-building-1/
Google Berkeley County - Building 2,south-carolina,33.0641324529701,-80.04356197197215,,,https://www.google.com/about/datacenters/locations/berkeley-county/?utm_source=datacentermap.com,https://www.datacentermap.com/usa/south-carolina/charleston/google-berkeley-county-building-2/
Google Berkeley County - Building 5,south-carolina,33.06190152953921,-80.04621794813461,,,https://www.google.com/about/datacenters/locations/berkeley-county/?utm_source=datacentermap.com,https://www.datacentermap.com/usa/south-carolina/charleston/google-berkeley-county-building-5/
Google Berkeley County - Building 3,south-carolina,33.06425664656706,-80.0414398081005,,,https://www.google.com/about/datacenters/locations/berkeley-county/?utm_source=datacentermap.com,https://www.datacentermap.com/usa/south-carolina/charleston/google-berkeley-county-building-3/
Google Berkeley County - Building 9,south-carolina,33.06199834849474,-80.03833385979473,,,https://www.google.com/about/datacenters/locations/berkeley-county/?utm_source=datacentermap.com,https://www.datacentermap.com/usa/south-carolina/charleston/google-berkeley-county-building-9/
DC BLOX Myrtle Beach,south-carolina,33.6747929,-78.9425936,19,,https://www.dcblox.com/data-centers/myrtle-beach-sc-cable-landing-station/?utm_source=datacentermap.com,https://www.datacentermap.com/usa/south-carolina/myrtle-beach/dc-blox-myrtle-beach/
Cogent Data Center - Fairfax,south-carolina,32.96373321777972,-81.23619416476097,,,https://www.cogentco.com/es/cogent-fairfax-sc?utm_source=datacentermap.com,https://www.datacentermap.com/usa/south-carolina/allendale/cogent-data-center-fairfax/
ArmorRack Data Center,south-carolina,34.697807,-82.9432303,0.5,,https://www.techsolsc.com/services/data-center-services/?utm_source=datacentermap.com,https://www.datacentermap.com/usa/south-carolina/seneca/technology-solutions/
Meta Aiken Data Center,south-carolina,33.6286,-81.837769,,,https://datacenters.atmeta.com/?utm_source=datacentermap.com,https://www.datacentermap.com/usa/south-carolina/aiken/meta-aiken/
QTS York II,south-carolina,35.037748,-81.10962599999999,,,https://qtsdatacenters.com/data-centers?utm_source=datacentermap.com,https://www.datacentermap.com/usa/south-carolina/rock-hill/qts-york-ii/
QTS York I,south-carolina,35.034176,-81.1045008,,,https://qtsdatacenters.com/data-centers?utm_source=datacentermap.com,https://www.datacentermap.com/usa/south-carolina/rock-hill/qts-york-i/
Cielo Digital Gaffney,south-carolina,35.0775680702847,-81.57891061390487,,,https://cieloinfra.com/?utm_source=datacentermap.com,https://www.datacentermap.com/usa/south-carolina/gaffney/cielo-digital-gaffney/
