Name,State,Latitude,Longitude,IT Load (MW),PUE,Website,Source URL
Equinix SV1,california,37.2416077,-121.7833501,,,https://www.equinix.com/?utm_source=datacentermap.com,https://www.datacentermap.com/usa/california/san-jose/equinix-san-jose1/
Equinix SV3,california,37.38823470000001,-121.8884572,4.6,,https://www.equinix.com/?utm_source=datacentermap.com,https://www.datacentermap.com/usa/california/san-jose/equinix-san-jose2/
150 South First St,california,37.333607,-121.888609,,,,https://www.datacentermap.com/usa/california/san-jose/150-south-first-street/
2334 Lundy Place,california,37.405884,-121.888912,,,,https://www.datacentermap.com/usa/california/san-jose/2334-lundy-place/
Equinix SV11,california,37.24305,-121.7841,,,https://www.equinix.com/?utm_source=datacentermap.com,https://www.datacentermap.com/usa/california/san-jose/equinix-sv11/
Equinix SV5,california,37.24215,-121.781855,15,,https://www.equinix.com/?utm_source=datacentermap.com,https://www.datacentermap.com/usa/california/san-jose/equinix-sv5/
Equinix SV10,california,37.24094,-121.78463,,,https://www.equinix.com/?utm_source=datacentermap.com,https://www.datacentermap.com/usa/california/san-jose/equinix-sv10/
Equinix SV12x,california,37.2333796,-121.7815418,28.8,,https://www.equinix.com/data-centers?utm_source=datacentermap.com,https://www.datacentermap.com/usa/california/san-jose/equinix-sv12x/
Prime San Jose,california,37.2353347,-121.7823438,10,1.25,https://primedatacenters.com/san-jose-data-center/?utm_source=datacentermap.com,https://www.datacentermap.com/usa/california/san-jose/prime-san-jose/
Element Critical Silicon Valley,california,37.3729016,-121.9878086,7,,https://elementcritical.com/data-centers/silicon-valley/?utm_source=datacentermap.com,https://www.datacentermap.com/usa/california/san-jose/centralcolo/
STACK Infrastructure SVY01A,california,37.402557,-121.8933284,9,,https://www.stackinfra.com/locations/americas/silicon-valley/svy01/?utm_source=datacentermap.com,https://www.datacentermap.com/usa/california/san-jose/fortune/
CoreSite Santa Clara (SV2),california,37.4057105,-121.9161259,,,https://www.coresite.com/?utm_source=datacentermap.com,https://www.datacentermap.com/usa/california/san-jose/valley-exchange/
Microsoft Alviso-Milpitas Campus,california,37.4237726,-121.9262607,99,,https://datacenters.microsoft.com/?utm_source=datacentermap.com,https://www.datacentermap.com/usa/california/san-jose/microsoft-alviso-milpitas-campus/
ECL MV1,california,37.3958939,-122.0469503,1,1.1,https://www.ecldc.com/?utm_source=datacentermap.com,https://www.datacentermap.com/usa/california/san-jose/ecl-mv1/
ColoCrossing SJ1,california,37.3341593,-121.8916855,10,,https://www.colocrossing.com/datacenter/san-jose-ca/?utm_source=datacentermap.com,https://www.datacentermap.com/usa/california/san-jose/colocrossing-sj1/
Evocative OAK1,california,37.8468998,-122.2935656,,,https://evocative.com/?utm_source=datacentermap.com,https://www.datacentermap.com/usa/california/san-jose/em1-emeryville-data-center/
Menlo Digital MD-SV1 (Sunnyvale),california,37.4012979,-122.032141,36,,https://menlo-digital.com/portfolio/md-sv1-sunnyvale/?utm_source=datacentermap.com,https://www.datacentermap.com/usa/california/san-jose/menlo-digital-md-sv1-sunnyvale/
NVIDIA San Jose Data Center,california,37.4183817,-121.9467171,8.5,,https://www.nvidia.com/en-us/data-center/?utm_source=datacentermap.com,https://www.datacentermap.com/usa/california/san-jose/nvidia-san-jose-data-center/
QTS Santa Clara I & II,california,37.392232,-121.9778256,7.5,,https://qtsdatacenters.com/data-centers/santa-clara?utm_source=datacentermap.com,https://www.datacentermap.com/usa/california/san-jose/quality-santa-clara-1/
Rackspace San Jose,california,37.333934,-121.888182,5.4,,https://www.rackspace.com/?utm_source=datacentermap.com,https://www.datacentermap.com/usa/california/san-jose/data-pipe-san-jose/
STACK Infrastructure SVY01B,california,37.4022537,-121.8923566,32,,https://www.stackinfra.com/locations/americas/silicon-valley/svy01/?utm_source=datacentermap.com,https://www.datacentermap.com/usa/california/san-jose/stack-infrastructure-svy01b/
Evocative SJC7,california,37.33839764047828,-121.9101762771606,,,https://evocative.com/?utm_source=datacentermap.com,https://www.datacentermap.com/usa/california/san-jose/sv7-san-jose-evocative-data-center/
Cogent Data Center - San Jose,california,37.3483969,-121.9238227,,,https://cogentco.com/en/cogent-bay-area?utm_source=datacentermap.com,https://www.datacentermap.com/usa/california/san-jose/cogent-data-center-san-jose/
CoreSite San Jose (SV1),california,37.334484,-121.891327,,,https://www.coresite.com/data-center-locations/silicon-valley?utm_source=datacentermap.com,https://www.datacentermap.com/usa/california/san-jose/market-post-tower/
Microsoft Orchard Pkwy Campus,california,37.37854152342197,-121.9325888737743,,,https://datacenters.microsoft.com/?utm_source=datacentermap.com,https://www.datacentermap.com/usa/california/san-jose/microsoft-sjc04-campus/
STACK Infrastructure SVY01D,california,37.4029146,-121.8950378,24,,https://www.stackinfra.com/locations/americas/silicon-valley/svy01/?utm_source=datacentermap.com,https://www.datacentermap.com/usa/california/san-jose/stack-infrastructure-svy05/
Amazon AWS SFO - 8050 Camino Arroyo,california,37.0159536,-121.5582849,,,https://aws.amazon.com/compliance/data-center/data-centers/?utm_source=datacentermap.com,https://www.datacentermap.com/usa/california/san-jose/amazon-aws-sfo-arroyo/
STACK Infrastructure SVY01C,california,37.4016556,-121.8953647,36,,https://www.stackinfra.com/locations/americas/silicon-valley/svy01/?utm_source=datacentermap.com,https://www.datacentermap.com/usa/california/san-jose/stack-infrastructure-svy06/
Equinix SV18,california,37.2343488,-121.783659,,,https://www.equinix.com/data-centers/americas-colocation/united-states-colocation/silicon-valley-data-centers?utm_source=datacentermap.com,https://www.datacentermap.com/usa/california/san-jose/equinix-sv18/
SVCOLO Sunnyvale,california,37.4004081,-122.0143135,,,https://www.svcolo.com/services/Data_Center_Services.html?utm_source=datacentermap.com,https://www.datacentermap.com/usa/california/san-jose/svcolo-sunnyvale/
Terra Data Center,california,37.4248641,-121.9738693,,,https://www.arcadis.com/en/projects/north-america/canada/nearing-net-zero?utm_source=datacentermap.com,https://www.datacentermap.com/usa/california/san-jose/terra-data-center/
Equinix Great Oaks South Campus,california,37.23320327542089,-121.7833950654785,,,http://equinix.com/?utm_source=datacentermap.com,https://www.datacentermap.com/usa/california/san-jose/equinix-great-oaks-south-campus/
AVAIO Pittsburg,california,38.0125556,-121.9098061,92,,https://avaiodigital.com/#projects?utm_source=datacentermap.com,https://www.datacentermap.com/usa/california/san-jose/avaio-pittsburg/
Arena Investors AI R&D,california,37.340437,-121.897553,,,https://www.arenaco.com/?utm_source=datacentermap.com,https://www.datacentermap.com/usa/california/san-jose/arena-investors-ai-rd/
Microsoft Alviso-Milpitas - Building 1,california,37.42389127574366,-121.9263607927957,,,https://datacenters.microsoft.com/?utm_source=datacentermap.com,https://www.datacentermap.com/usa/california/san-jose/microsoft-alviso-milpitas-building-1/
Microsoft Alviso-Milpitas - Building 2,california,37.42448610563945,-121.9266526171043,,,https://datacenters.microsoft.com/?utm_source=datacentermap.com,https://www.datacentermap.com/usa/california/san-jose/microsoft-alviso-milpitas-building-2/
Equinix SV19,california,37.2332692,-121.7847898,,,http://equinix.com/?utm_source=datacentermap.com,https://www.datacentermap.com/usa/california/san-jose/equinix-sv19/
Microsoft SJC04,california,37.378309,-121.933703,,,https://datacenters.microsoft.com/?utm_source=datacentermap.com,https://www.datacentermap.com/usa/california/san-jose/microsoft-sjc04/
LightEdge - San Jose,california,37.24117060838421,-121.7847615842732,,,https://lightedge.com/data-centers/san-jose-data-center/?utm_source=datacentermap.com,https://www.datacentermap.com/usa/california/san-jose/lightedge-san-jose/
Microsoft SJC06,california,37.37775,-121.932767,,,https://datacenters.microsoft.com/?utm_source=datacentermap.com,https://www.datacentermap.com/usa/california/san-jose/microsoft-sjc06/
Synoptek - San Jose Data Center,california,37.241616,-121.782668,,,https://synoptek.com/?utm_source=datacentermap.com,https://www.datacentermap.com/usa/california/san-jose/earthlink-san-jose/
STACK Infrastructure SVY01 Campus,california,37.40253853339502,-121.8938850322644,,,https://www.stackinfra.com/locations/americas/silicon-valley/svy01/?utm_source=datacentermap.com,https://www.datacentermap.com/usa/california/san-jose/stack-infrastructure-svy01-campus/
Prologis San Jose DC2,california,37.422335,-121.94639,99,,https://www.prologis.com/node/47081?utm_source=datacentermap.com,https://www.datacentermap.com/usa/california/san-jose/prologis-san-jose-dc2/
Plug and Play Tech Center,california,37.383958,-122.0129203,,,https://it.plugandplaytechcenter.com/data-center/?utm_source=datacentermap.com,https://www.datacentermap.com/usa/california/san-jose/plug-and-play-tech-center/
Prologis San Jose DC3,california,37.422927,-121.944296,99,,https://www.prologis.com/node/47081?utm_source=datacentermap.com,https://www.datacentermap.com/usa/california/san-jose/prologis-san-jose-dc3/
Prologis San Jose Campus,california,37.422695,-121.945317,396,,https://www.prologis.com/node/47081?utm_source=datacentermap.com,https://www.datacentermap.com/usa/california/san-jose/prologis-san-jose-campus/
Prologis San Jose DC1,california,37.421829,-121.948571,99,,https://www.prologis.com/node/47081?utm_source=datacentermap.com,https://www.datacentermap.com/usa/california/san-jose/prologis-san-jose-dc1/
Got.Net Salinas,california,36.6533638,-121.6256412,,,https://www.got.net/services/colocation/?utm_source=datacentermap.com,https://www.datacentermap.com/usa/california/san-jose/gotnet-salinas/
Prologis San Jose DC4,california,37.423428,-121.942002,99,,https://www.prologis.com/node/47081?utm_source=datacentermap.com,https://www.datacentermap.com/usa/california/san-jose/prologis-san-jose-dc4/
China Mobile San Jose,california,37.2364522,-121.7815908,,,https://www.cmi.chinamobile.com/en?utm_source=datacentermap.com,https://www.datacentermap.com/usa/california/san-jose/china-mobile-san-jose/
Lumen San Jose 1,california,37.3679038,-121.9201997,,,https://www.lumen.com/?utm_source=datacentermap.com,https://www.datacentermap.com/usa/california/san-jose/level3-san-jose1/
Goodman Innovation Centre San Jose (DC2),california,37.38263804632764,-121.9330782346936,,,https://lbarealty.com/?utm_source=datacentermap.com,https://www.datacentermap.com/usa/california/san-jose/350-west-trimble-road-dc2/
Goodman Innovation Centre San Jose (DC1),california,37.3809034,-121.9349707,,,https://lbarealty.com/?utm_source=datacentermap.com,https://www.datacentermap.com/usa/california/san-jose/350-west-trimble-road-dc1/
NaviSite San Jose,california,37.3927139,-121.9267244,,,https://www.navisite.com/services/colocation/?utm_source=datacentermap.com,https://www.datacentermap.com/usa/california/san-jose/navisite-san-jose/
Lumen San Jose,california,37.374022,-121.98796,,,https://www.lumen.com/en-us/home.html?utm_source=datacentermap.com,https://www.datacentermap.com/usa/california/san-jose/level3-san-jose/
Aecero CBX,california,33.8495253,-117.9709823,6,,https://www.aecero.com?utm_source=datacentermap.com,https://www.datacentermap.com/usa/california/irvine/streaming-media-hosting/
Anaheim,california,33.8608908,-117.7948891,5,1.0,https://www.eaglemountaindata.com?utm_source=datacentermap.com,https://www.datacentermap.com/usa/california/irvine/anaheim/
DataBank SNA1 - Irvine,california,33.6904376,-117.8405968,2.64,,https://www.databank.com/data-centers/irvine/orange-county/?utm_source=datacentermap.com,https://www.datacentermap.com/usa/california/irvine/latisys-irvine/
IC2NET Tustin,california,33.7176679,-117.8083267,,,https://www.ic2net.net?utm_source=datacentermap.com,https://www.datacentermap.com/usa/california/irvine/ic2net-tustin-data-center/
DataBank SNA2 - Irvine,california,33.6878673,-117.8424155,8,,https://www.databank.com/data-centers/irvine/17400-von-karman-avenue/?utm_source=datacentermap.com,https://www.datacentermap.com/usa/california/irvine/databank-sna2/
Csquare - Los Angeles LAX3-A,california,33.68786210291935,-117.8474986553192,7.2,,https://centersquaredc.com/data-centers?utm_source=datacentermap.com,https://www.datacentermap.com/usa/california/irvine/cyxtera-lax3/
Cogent Data Center - Anaheim,california,33.8314099,-117.9181906,0.1,,https://www.cogentco.com/en/?utm_source=datacentermap.com,https://www.datacentermap.com/usa/california/irvine/cogent-anaheim/
SMS Datacenter,california,33.6831608,-117.8435413,,,https://www.smsdatacenter.com?utm_source=datacentermap.com,https://www.datacentermap.com/usa/california/irvine/grupo-sms/
Millennium Systems Inc,california,33.6321588,-117.734101,,,https://www.millsysinc.com/?utm_source=datacentermap.com,https://www.datacentermap.com/usa/california/irvine/millennium-systems/
Alchemy Irvine Data Center,california,33.6836599,-117.846467,,,https://www.alchemy.net?utm_source=datacentermap.com,https://www.datacentermap.com/usa/california/irvine/alchemynet/
Cogent Data Center - Anaheim 2,california,33.8347534,-117.9450888,8.31,,https://www.cogentco.com/en/cogent-anaheim?utm_source=datacentermap.com,https://www.datacentermap.com/usa/california/irvine/cogent-data-center-anaheim-2/
TPx Santa Ana Data Center,california,33.7083825,-117.8439486,18,,https://www.tpx.com/?utm_source=datacentermap.com,https://www.datacentermap.com/usa/california/irvine/tpx-santa-ana-data-center/
Lumen Anaheim 1,california,33.848418,-117.970955,,,https://www.lumen.com/?utm_source=datacentermap.com,https://www.datacentermap.com/usa/california/irvine/level3-anaheim1/
Data Canopy - Irvine,california,33.694874,-117.836955,,,https://datacanopy.com/data-centers/irvine-ca-2/?utm_source=datacentermap.com,https://www.datacentermap.com/usa/california/irvine/hosting-irvine/
2260 E El Segundo Blvd (LAX12),california,33.9156347,-118.3846072,7.1,,,https://www.datacentermap.com/usa/california/los-angeles/2260-e-el-segundo/
Hivelocity - Los Angeles 1,california,34.047966,-118.25557,,,,https://www.datacentermap.com/usa/california/los-angeles/rackalley-la1/
600 West 7th Street (LAX10),california,34.047322,-118.2574494,9,,,https://www.datacentermap.com/usa/california/los-angeles/600-west-7th-street/
4400 Pacific Blvd,california,34.003609,-118.2297296,,,,https://www.datacentermap.com/usa/california/los-angeles/4400-pacific-blvd/
Csquare - Los Angeles LAX5-A,california,33.6846747,-117.8368209,15,,https://centersquaredc.com/data-centers?utm_source=datacentermap.com,https://www.datacentermap.com/usa/california/los-angeles/evoque-lax2/
Prime Los Angeles,california,34.0011773,-118.2309309,33,1.25,https://primedatacenters.com/los-angeles-data-center/?utm_source=datacentermap.com,https://www.datacentermap.com/usa/california/los-angeles/prime-los-angeles/
Serverfarm Los Angeles Data Center LAX1,california,33.921778,-118.38632,22,1.3,https://www.serverfarmllc.com/los-angeles-data-center/?utm_source=datacentermap.com,https://www.datacentermap.com/usa/california/los-angeles/t5-el-segundo/
One Wilshire,california,34.047966,-118.25557,32,,https://www.one-wilshire.com/?utm_source=datacentermap.com,https://www.datacentermap.com/usa/california/los-angeles/one-wilshire-building/
West 7 Center,california,34.051484,-118.265757,16.9,1.25,https://www.west7center.com/?utm_source=datacentermap.com,https://www.datacentermap.com/usa/california/los-angeles/the-garland-building/
Colocation America LADC3,california,34.047308,-118.257093,27,,https://www.colocationamerica.com/data-center-locations/los-angeles?utm_source=datacentermap.com,https://www.datacentermap.com/usa/california/los-angeles/colocation-america-600w-7th/
Cogent Data Center - Pasadena,california,34.1684525,-118.0888087,2.7,,https://www.cogentco.com/en/cogent-los-angeles?utm_source=datacentermap.com,https://www.datacentermap.com/usa/california/los-angeles/cogent-pasadena/
Cogent Data Center - La Mirada,california,33.87975939558614,-118.0267133828582,2.2,,http://www.cogentco.com?utm_source=datacentermap.com,https://www.datacentermap.com/usa/california/los-angeles/cogent-la-mirada/
Converge Technology Solutions Agoura Hills,california,34.1460242,-118.7771808,1,,https://convergetp.com/digital-infrastructure/?utm_source=datacentermap.com,https://www.datacentermap.com/usa/california/los-angeles/is-west-agoura-ct/
Cogent Data Center - Los Angeles,california,34.048282,-118.254504,0.5,,https://www.cogentco.com/en/cogent-los-angeles?utm_source=datacentermap.com,https://www.datacentermap.com/usa/california/los-angeles/cogent-los-angeles/
DataBank LAX1 - Los Angeles One Wilshire,california,34.0479,-118.25552,2,,https://www.databank.com/data-centers/los-angeles/624-south-grand-avenue/?utm_source=datacentermap.com,https://www.datacentermap.com/usa/california/los-angeles/databank-lax1/
Equinix LA3,california,33.9262876,-118.3940307,,,https://www.equinix.com/?utm_source=datacentermap.com,https://www.datacentermap.com/usa/california/los-angeles/equinix-la3/
Equinix LA7,california,33.85071,-118.30411,,,https://www.equinix.com/?utm_source=datacentermap.com,https://www.datacentermap.com/usa/california/los-angeles/equinix-la7/
Colocation America LADC4,california,34.048282,-118.254504,,,https://www.colocationamerica.com/data-center-locations/los-angeles?utm_source=datacentermap.com,https://www.datacentermap.com/usa/california/los-angeles/colocation-america-telecom-center/
Colocation America LADC2,california,34.049227,-118.256979,,,https://www.colocationamerica.com/data-center-locations/los-angeles?utm_source=datacentermap.com,https://www.datacentermap.com/usa/california/los-angeles/colocation-america-aon-center/
Colocation America LADC5,california,34.048721,-118.255266,,,https://www.colocationamerica.com/data-center-locations/los-angeles?utm_source=datacentermap.com,https://www.datacentermap.com/usa/california/los-angeles/colocation-america-quinby/
Alchemy Downtown Data Center,california,34.051077,-118.2658418,,,https://www.alchemy.net/?utm_source=datacentermap.com,https://www.datacentermap.com/usa/california/los-angeles/downtown-data-center/
Crown Castle Los Angeles LA1,california,34.0511405,-118.2659179,1,,https://www.crowncastle.com/infrastructure-solutions/colocation?utm_source=datacentermap.com,https://www.datacentermap.com/usa/california/los-angeles/ix2-networks/
Crown Castle Los Angeles LA2,california,34.0478121,-118.2568332,1,,https://www.crowncastle.com/infrastructure-solutions/colocation?utm_source=datacentermap.com,https://www.datacentermap.com/usa/california/los-angeles/ix2-networks-530-w-6th/
Cogent Data Center - Burbank,california,34.1774244,-118.3114458,2,,https://www.cogentco.com/en/cogent-los-angeles?utm_source=datacentermap.com,https://www.datacentermap.com/usa/california/los-angeles/cogent-data-center-burbank/
CoreSite Los Angeles (LA2),california,34.058656,-118.236954,,,https://www.coresite.com/data-center-locations/los-angeles?utm_source=datacentermap.com,https://www.datacentermap.com/usa/california/los-angeles/wilshire-annex/
CoreSite One Wilshire (LA1),california,34.049464,-118.254579,,,https://www.coresite.com/data-center-locations/los-angeles?utm_source=datacentermap.com,https://www.datacentermap.com/usa/california/los-angeles/one-wilshire/
Equinix LA1,california,34.051484,-118.265757,,,https://www.equinix.com/?utm_source=datacentermap.com,https://www.datacentermap.com/usa/california/los-angeles/switch-data-los-angeles/
Xfernet Data Center,california,34.0613935,-118.2931958,,,https://www.xfernet.com/?utm_source=datacentermap.com,https://www.datacentermap.com/usa/california/los-angeles/xfernet-data-center/
Psychz Los Angeles,california,34.04867,-118.257536,,,http://psychz.net?utm_source=datacentermap.com,https://www.datacentermap.com/usa/california/los-angeles/psla-data-center/
Csquare - Los Angeles LAX2,california,34.19985587540762,-118.3438038825989,2,,https://centersquaredc.com/data-centers?utm_source=datacentermap.com,https://www.datacentermap.com/usa/california/los-angeles/cyxtera-lax2a/
Evocative LAX14,california,33.889081,-118.368877,7.5,,https://evocative.com/data-centers/redondo-beach-data-center-lax14/?utm_source=datacentermap.com,https://www.datacentermap.com/usa/california/los-angeles/internap-los-angeles/
UnitedLayer Los Angeles,california,34.0479477,-118.2553576,2,,https://www.unitedlayer.com/los-angeles-colocation/?utm_source=datacentermap.com,https://www.datacentermap.com/usa/california/los-angeles/unitedlayer-los-angeles/
DataBank LAX2 - Vernon,california,34.0050331,-118.2184234,32,,https://us.goodman.com/our-properties/properties-for-lease/goodman-lax01-vernon?utm_source=datacentermap.com,https://www.datacentermap.com/usa/california/los-angeles/goodman-lax01/
DigiCo Los Angeles LAX1,california,34.04039077076558,-118.1135984773865,56,,https://www.digi-co.com.au/location/los-angeles-lax1/?utm_source=datacentermap.com,https://www.datacentermap.com/usa/california/los-angeles/1977-saturn-data-center/
Aon Center,california,34.049227,-118.256979,,,https://shorenstein.com/?utm_source=datacentermap.com,https://www.datacentermap.com/usa/california/los-angeles/aon-center-la/
ColoCrossing LA1,california,34.0511103,-118.2659241,,,https://www.colocrossing.com/datacenter/los-angeles-ca/?utm_source=datacentermap.com,https://www.datacentermap.com/usa/california/los-angeles/colocrossing-la1/
QuadraNet Los Angeles,california,34.048282,-118.254504,,,https://quadranet.com/?utm_source=datacentermap.com,https://www.datacentermap.com/usa/california/los-angeles/quadranet-los-angeles/
TELEHOUSE Los Angeles Center,california,34.048138,-118.256277,0.665,,https://www.telehouse.com/global-data-centers/america/los-angeles-data-centers/telehouse-los-angeles/?utm_source=datacentermap.com,https://www.datacentermap.com/usa/california/los-angeles/telehouse-los-angeles/
Evocative LAX2,california,34.04725468212268,-118.257372379303,27,,https://evocative.com/?utm_source=datacentermap.com,https://www.datacentermap.com/usa/california/los-angeles/la2-los-angles-evocative-dc/
Colocation America LADC1,california,34.0479477,-118.2553576,,,https://www.colocationamerica.com/data-center-locations/los-angeles?utm_source=datacentermap.com,https://www.datacentermap.com/usa/california/los-angeles/colocation-america-ladc1/
Telecom Center LA,california,34.048282,-118.254504,,,https://www.bgcg.com?utm_source=datacentermap.com,https://www.datacentermap.com/usa/california/los-angeles/telecom-center-la/
Subrigo - 650 South Grand,california,34.048721,-118.255266,2,,https://subrigo.net/home/network/data-centers/los-angeles-data-center/?utm_source=datacentermap.com,https://www.datacentermap.com/usa/california/los-angeles/downtown-colo-corporation/
365 Data Centers - Los Angeles 1,california,34.047336,-118.257447,,,https://365datacenters.com/?utm_source=datacentermap.com,https://www.datacentermap.com/usa/california/los-angeles/inforelay-lax1/
CoreSite Los Angeles (LA3),california,34.0593156,-118.2354621,,,https://www.coresite.com/data-center-locations/los-angeles?utm_source=datacentermap.com,https://www.datacentermap.com/usa/california/los-angeles/coresite-los-angeles-la3/
Vernon Data Center,california,33.9985878,-118.2217903,52,,https://downtown-properties.com/properties/?utm_source=datacentermap.com,https://www.datacentermap.com/usa/california/los-angeles/vernon-data-center/
One Data Center Ontario,california,34.060043,-117.559722,,,https://onedatacenteramerica.com/our-datacenter/?utm_source=datacentermap.com,https://www.datacentermap.com/usa/california/los-angeles/ontario-datacenter/
Fireline Broadband Data Center,california,34.0623463,-118.3586597,,,https://www.firelinebroadband.com/data-center/?utm_source=datacentermap.com,https://www.datacentermap.com/usa/california/los-angeles/fireline-broadband-data-center/
Edge Centres EC101 Los Angeles,california,34.0524433,-118.2535977,,1.1,https://edgecentres.com/locations/united-states/ec101-los-angeles?utm_source=datacentermap.com,https://www.datacentermap.com/usa/california/los-angeles/multacom/
Crown Castle Los Angeles LA3,california,34.0483728,-118.2551544,,,https://www.crowncastle.com/infrastructure-solutions/colocation?utm_source=datacentermap.com,https://www.datacentermap.com/usa/california/los-angeles/wilcon/
Alchemy LAX Data Center,california,33.945606,-118.393274,,,https://alchemy.net/?utm_source=datacentermap.com,https://www.datacentermap.com/usa/california/los-angeles/lax-datacenter/
Hivelocity - Los Angeles 2,california,34.047322,-118.2574494,10,,,https://www.datacentermap.com/usa/california/los-angeles/la2/
DataBank - 707 Wilshire Blvd,california,34.049261,-118.257024,,,https://www.databank.com/?utm_source=datacentermap.com,https://www.datacentermap.com/usa/california/los-angeles/zcolo-707-wilshireblvd/
Aptum Los Angeles,california,34.0479469,-118.2401657,,,https://aptum.com/?utm_source=datacentermap.com,https://www.datacentermap.com/usa/california/los-angeles/peer-1-los-angeles/
Coachella Valley Technology Campus,california,33.66741006094001,-116.1347292213322,600,,https://dmkprojects.com/coachella-valley-technology-campus/?utm_source=datacentermap.com,https://www.datacentermap.com/usa/california/los-angeles/coachella-valley-technology-campus/
Spectrum Networks El Segundo,california,33.90809317253934,-118.3816234350042,,,https://enterprise.spectrum.com/products/managed-services.html?utm_source=datacentermap.com,https://www.datacentermap.com/usa/california/los-angeles/spectrum-networks-el-segundo/
One Data Center America,california,34.0668909,-117.5682629,,,https://onedatacenteramerica.com/our-datacenter/?utm_source=datacentermap.com,https://www.datacentermap.com/usa/california/los-angeles/datacenter-america/
365 Data Centers - Los Angeles 2,california,34.047966,-118.25557,,,https://365datacenters.com/?utm_source=datacentermap.com,https://www.datacentermap.com/usa/california/los-angeles/inforelay-lax2/
DigiCo Los Angeles LAX2,california,34.0386032,-118.1138259,,,https://www.digi-co.com.au/location/los-angeles-lax2/?utm_source=datacentermap.com,https://www.datacentermap.com/usa/california/los-angeles/digico-los-angeles-lax2/
365 Data Centers - Los Angeles 3,california,34.0580987,-118.2366037,,,https://365datacenters.com/?utm_source=datacentermap.com,https://www.datacentermap.com/usa/california/los-angeles/inforelay-lax3/
Windstream Los Angeles,california,34.0483363,-118.2550835,,,https://www.windstreamwholesale.com/solutions/?utm_source=datacentermap.com,https://www.datacentermap.com/usa/california/los-angeles/windstream-los-angeles/
Lumen Los Angeles,california,34.049028,-118.259272,,,https://www.lumen.com/en-us/home.html?utm_source=datacentermap.com,https://www.datacentermap.com/usa/california/los-angeles/level-3-los-angeles/
818 Plaza,california,34.0488552,-118.2595093,,,https://downtown-properties.com/?utm_source=datacentermap.com,https://www.datacentermap.com/usa/california/los-angeles/818-west-7th-street/
Quinby Building,california,34.0473943,-118.2562446,,,https://www.majorproperties.com/property/dtla-13-story-quinby-building/?utm_source=datacentermap.com,https://www.datacentermap.com/usa/california/los-angeles/quinby-building/
NocRoom Los Angeles Colocation,california,34.0483496,-118.2551371,,,https://nocroom.com/datacenter/losangeles-colocation/?utm_source=datacentermap.com,https://www.datacentermap.com/usa/california/los-angeles/nocroom-los-angeles-colocation/
Long Beach Data Center,california,33.77503987781369,-118.1464901086273,,,http://www.longbeachdatacenter.com?utm_source=datacentermap.com,https://www.datacentermap.com/usa/california/los-angeles/long-beach-data-center/
Hostrunway Los Angeles,california,34.0581509,-118.2354169,,,https://www.hostrunway.com?utm_source=datacentermap.com,https://www.datacentermap.com/usa/california/los-angeles/hostrunway-naud/
611 Wilshire,california,34.0482016993191,-118.256031850669,,,http://xyvest.com?utm_source=datacentermap.com,https://www.datacentermap.com/usa/california/los-angeles/611-wilshire/
IHNetworks Datacenter (SFV1),california,34.2325166,-118.5771849,,,http://www.ihnetworks.com?utm_source=datacentermap.com,https://www.datacentermap.com/usa/california/los-angeles/ihnetworks-datacenter/
China Telecom One Wilshire,california,34.0479077,-118.2555364,,,https://www.ctamericas.com/?utm_source=datacentermap.com,https://www.datacentermap.com/usa/california/los-angeles/one-wilshire3/
WebNX Los Angeles,california,34.0481869,-118.2548902,,,https://webnx.com/colocation?utm_source=datacentermap.com,https://www.datacentermap.com/usa/california/los-angeles/webnx-lax/
Subrigo - 624 South Grand,california,34.047966,-118.25557,,,https://subrigo.net/home/network/data-centers/los-angeles-data-center/?utm_source=datacentermap.com,https://www.datacentermap.com/usa/california/los-angeles/downtown-colo-624/
Cogent Data Center - Stockton,california,37.9880529,-121.2887508,6.8,,https://www.cogentco.com/es/cogent-bay-area/313-oak-office?utm_source=datacentermap.com,https://www.datacentermap.com/usa/california/stockton/cogent-data-center-stockton/
Rowan Matterhorn,california,37.79625437573112,-121.5547446388748,,,https://www.quinbrook.com/quinbrook-project/meriwether/?utm_source=datacentermap.com,https://www.datacentermap.com/usa/california/stockton/rowan-matterhorn/
Lumen Los Angeles 4,california,34.0479891,-118.2565708,,,https://www.lumen.com/?utm_source=datacentermap.com,https://www.datacentermap.com/usa/california/los-angeles/level3-los-angeles4/
Nautilus Stockton,california,37.96522046144173,-121.3685587045894,7,1.15,https://nautilusdt.com/?utm_source=datacentermap.com,https://www.datacentermap.com/usa/california/stockton/nautilus-stockton/
Cogent Data Center - Rialto,california,34.0972616,-117.3668327,2.7,,https://www.cogentco.com/en/cogent-anaheim?utm_source=datacentermap.com,https://www.datacentermap.com/usa/california/san-bernardino/cogent-data-center-rialto/
Lumen San Bernardino,california,34.1842015,-117.3544382,,,https://www.lumen.com/?utm_source=datacentermap.com,https://www.datacentermap.com/usa/california/san-bernardino/level3-san-bernardino/
GDC - Sacramento CA3 Data Center,california,38.6443843,-121.4986357,14,,https://services.global.ntt/en-us/services-and-products/global-data-centers/global-locations/americas/sacramento-ca-3-data-center?utm_source=datacentermap.com,https://www.datacentermap.com/usa/california/sacramento/ntt-sacramento-ca3/
GDC - Sacramento CA2 Data Center,california,38.6504135,-121.4893549,26.1,,https://services.global.ntt/en-us/services-and-products/global-data-centers/global-locations/americas/sacramento-ca-2-data-center?utm_source=datacentermap.com,https://www.datacentermap.com/usa/california/sacramento/ntt-sacramento-ca2/
GDC - Sacramento CA1 Data Center,california,38.6509401,-121.4914402,12.6,,https://services.global.ntt/en-us/services-and-products/global-data-centers/global-locations/americas/sacramento-ca-1-data-center?utm_source=datacentermap.com,https://www.datacentermap.com/usa/california/sacramento/ntt-sacramento-ca1/
Quest Roseville HABC,california,38.7909258,-121.317567,8,,https://questsys.com/services/managed-and-cloud-services/co-location-facilities/?utm_source=datacentermap.com,https://www.datacentermap.com/usa/california/sacramento/quest-roseville-sdc/
Quest McClellan BRC,california,38.6444895,-121.4066073,6,,https://questsys.com/services/managed-and-cloud-services/co-location-facilities/?utm_source=datacentermap.com,https://www.datacentermap.com/usa/california/sacramento/mcclellan-brc/
Prime Sacramento Data Center Campus,california,38.6432828,-121.4079046,26,1.25,https://primedatacenters.com/sacramento-data-centers/?utm_source=datacentermap.com,https://www.datacentermap.com/usa/california/sacramento/prime-building-one/
365 Data Centers - Rancho Cordova,california,38.59599,-121.272554,5,,https://365datacenters.com/?utm_source=datacentermap.com,https://www.datacentermap.com/usa/california/sacramento/sungard-sacramento/
QTS Sacramento,california,38.6464945,-121.4862549,4,,https://qtsdatacenters.com/data-centers/sacramento?utm_source=datacentermap.com,https://www.datacentermap.com/usa/california/sacramento/herakles-data/
Conscious Data Centers,california,38.5870116,-121.2821277,5,,https://consciousdatacenters.com/?utm_source=datacentermap.com,https://www.datacentermap.com/usa/california/sacramento/conscious-data-centers/
EdgeConneX Sacramento - EDCSAC01,california,38.59229,-121.277357,1.5,,https://www.edgeconnex.com/locations/americas/sacramento-ca/?utm_source=datacentermap.com,https://www.datacentermap.com/usa/california/sacramento/edcsac01/
Prime Sacramento - Data Center 2,california,38.6426582,-121.4068614,18,1.25,https://primedatacenters.com/sacramento-data-centers/?utm_source=datacentermap.com,https://www.datacentermap.com/usa/california/sacramento/prime-sacramento-dc2/
Prime Sacramento - Data Center 1,california,38.643148,-121.407521,8,1.25,https://primedatacenters.com/sacramento-data-centers/?utm_source=datacentermap.com,https://www.datacentermap.com/usa/california/sacramento/prime-sacramento-dc1/
Datacate Rancho Cordova,california,38.594558,-121.268192,1.4,,https://www.datacate.net/colocation/rancho-cordova-ca/?utm_source=datacentermap.com,https://www.datacentermap.com/usa/california/sacramento/datacate/
TPx Sacramento Data Center,california,38.5774188,-121.4862016,,,https://www.tpx.com/?utm_source=datacentermap.com,https://www.datacentermap.com/usa/california/sacramento/tpx-sacramento-data-center/
Cogent Data Center - Oroville,california,39.5142331,-121.5502911,2.3,,https://www.cogentco.com/en/cogent-bay-area/313-oak-office?utm_source=datacentermap.com,https://www.datacentermap.com/usa/california/sacramento/cogent-data-center-oroville/
Consolidated McClellan,california,38.6733377,-121.390048,,,https://www.consolidated.com/business/medium-enterprise/data-center-services/locations/california?utm_source=datacentermap.com,https://www.datacentermap.com/usa/california/sacramento/consolidated-mcclellan/
iStreet Solutions,california,38.5869154,-121.5305789,,,https://www.istreetsolutions.com/?utm_source=datacentermap.com,https://www.datacentermap.com/usa/california/sacramento/istreet-solutions/
Consolidated Citrus Heights,california,38.6973709,-121.283106,,,https://www.consolidated.com/business/medium-enterprise/data-center-services/locations/california?utm_source=datacentermap.com,https://www.datacentermap.com/usa/california/sacramento/consolidated-citrus-heights/
Lumen Sacramento 1,california,38.5869154,-121.5306666,,,https://www.lumen.com/?utm_source=datacentermap.com,https://www.datacentermap.com/usa/california/sacramento/lumen-sacramento-1/
DataNOC Data Center,california,38.5764625,-121.307198,,,https://www.datanoc.com/colocation?utm_source=datacentermap.com,https://www.datacentermap.com/usa/california/sacramento/datanoccom/
Lumen Sacramento 2,california,38.59143,-121.487826,,,https://www.lumen.com/?utm_source=datacentermap.com,https://www.datacentermap.com/usa/california/sacramento/level3-sacramento2/
DataBank SAN1 - San Diego World Trade,california,32.9885962,-117.0731756,3.2,,https://www.databank.com/data-centers/san-diego/12270-world-trade-drive/?utm_source=datacentermap.com,https://www.datacentermap.com/usa/california/san-diego/castle-access/
MDC San Diego - SDG1,california,32.5941922,-117.0853841,0.5,,https://www.mdcdatacenters.com/data-centers/our-locations/san-diego/sg1/?utm_source=datacentermap.com,https://www.datacentermap.com/usa/california/san-diego/mdc-san-diego/
ScaleMatrix San Diego,california,32.837756,-117.132835,5,1.2,https://www.scalematrix.com?utm_source=datacentermap.com,https://www.datacentermap.com/usa/california/san-diego/scalematrix/
EdgeConneX San Diego - EDCSDG01,california,32.8404895,-117.1683742,0.5,,https://www.edgeconnex.com/locations/americas/san-diego-ca/?utm_source=datacentermap.com,https://www.datacentermap.com/usa/california/san-diego/edcsdg01/
LightEdge - San Diego I,california,32.82785,-117.129683,,,https://www.lightedge.com/?utm_source=datacentermap.com,https://www.datacentermap.com/usa/california/san-diego/american-internet-services-ais/
Cogent Data Center - San Diego 2,california,32.88044764485392,-117.2094655036926,0.9,,http://www.cogentco.com/en/cogent-san-diego?utm_source=datacentermap.com,https://www.datacentermap.com/usa/california/san-diego/cogent-san-diego2/
I2B Networks San Diego,california,32.83052398649002,-117.1368640909025,1.25,,https://www.i2bnetworks.com/about/about-ourdatacenter?utm_source=datacentermap.com,https://www.datacentermap.com/usa/california/san-diego/i2b-networks-san-diego/
SimpleNet Colo,california,32.7152655,-117.1624985,,,https://www.simplenet.com/services/colocations.html?utm_source=datacentermap.com,https://www.datacentermap.com/usa/california/san-diego/simplenet-colo/
CARI.net Campus,california,32.8299041,-117.1341603,1,,https://cari.net/about/our-data-centers/?utm_source=datacentermap.com,https://www.datacentermap.com/usa/california/san-diego/carinet/
Cogent Data Center - San Diego 3,california,32.7086979,-117.1514773,,,https://www.cogentco.com/en/cogent-san-diego?utm_source=datacentermap.com,https://www.datacentermap.com/usa/california/san-diego/cogent-data-center-san-diego-3/
Cogent Data Center - San Diego 1,california,32.7176406,-117.1596829,0.1,,http://www.cogentco.com/en/cogent-san-diego?utm_source=datacentermap.com,https://www.datacentermap.com/usa/california/san-diego/cogent-san-diego/
LightEdge - San Diego II,california,32.897274,-117.201076,,,https://www.lightedge.com/?utm_source=datacentermap.com,https://www.datacentermap.com/usa/california/san-diego/american-internet-services-sdtc/
Lumen San Diego 2,california,32.829836,-117.134159,,,https://www.lumen.com/?utm_source=datacentermap.com,https://www.datacentermap.com/usa/california/san-diego/level3-san-diego2/
Lumen San Diego 1,california,32.809748,-117.135609,,,https://www.lumen.com/en-us/home.html?utm_source=datacentermap.com,https://www.datacentermap.com/usa/california/san-diego/level3-san-diego/
"Sierra Morena Tower, LLC",california,37.410485,-122.3072202,1,,https://www.sierramorenatower.com?utm_source=datacentermap.com,https://www.datacentermap.com/usa/california/palo-alto/sierra-morena-tower/
Equinix SV8,california,37.445684,-122.161201,,,https://www.equinix.com/?utm_source=datacentermap.com,https://www.datacentermap.com/usa/california/palo-alto/switchdata-palo-alto/
Csquare - Redwood RWC1,california,37.4805075,-122.2003864,,,https://www.business.att.com/products/colocation.html?utm_source=datacentermap.com,https://www.datacentermap.com/usa/california/palo-alto/att-3175-spring/
1500 Space Park Dr (SJC14),california,37.3758007,-121.955182,4.8,,,https://www.datacentermap.com/usa/california/santa-clara/1550-space-park/
1100 Space Park Dr (SJC10),california,37.375823,-121.9533248,6.3,,,https://www.datacentermap.com/usa/california/santa-clara/1100-space-park-drive/
3205 Alfred St (SJC35),california,37.3790313,-121.9583275,6,,,https://www.datacentermap.com/usa/california/santa-clara/3115-alfred-rd/
3105 Alfred Rd (SJC30),california,37.3782712,-121.9581122,4.5,,,https://www.datacentermap.com/usa/california/santa-clara/3105-alfred-rd/
2820 Northwestern Pkwy (SJC34),california,37.3724282,-121.9736174,5.7,,,https://www.datacentermap.com/usa/california/santa-clara/telx-scl2/
1201 Comstock St (SJC15),california,37.3749804,-121.954079,2.2,,,https://www.datacentermap.com/usa/california/santa-clara/1201-comstock-street/
1525 Comstock St (SJC16),california,37.3749295,-121.9560081,4.5,,,https://www.datacentermap.com/usa/california/santa-clara/1525-comstock-street/
2220 De La Cruz Blvd (SC1),california,37.3617685,-121.9437734,52.6,,,https://www.datacentermap.com/usa/california/santa-clara/2220-de-la-cruz-boulevard/
2805 Lafayette St (SJC31),california,37.3722803,-121.9482559,9.3,,,https://www.datacentermap.com/usa/california/santa-clara/2805-lafayette/
1725 Comstock St (SJC29),california,37.3750338,-121.9580965,3.3,,,https://www.datacentermap.com/usa/california/santa-clara/1725-comstock-street/
3011 Lafayette St (SJC11),california,37.37634,-121.948688,6,,,https://www.datacentermap.com/usa/california/santa-clara/3011-lafayette-street/
1350 Duane & 3080 Raymond,california,37.37815259245142,-121.9545456128045,,,,https://www.datacentermap.com/usa/california/santa-clara/1350-duane-3080-raymond/
2825-2845 Lafayette Street (SJC36),california,37.3726199,-121.9467445,,,,https://www.datacentermap.com/usa/california/santa-clara/2825-2845-lafayette-street-sjc36/
2045 & 2055 LaFayette St (SJC17),california,37.34741,-121.941833,,,,https://www.datacentermap.com/usa/california/santa-clara/2045-2055-lafayette-street/
641 Walsh Ave (SJC37),california,37.3709268,-121.9472418,,,,https://www.datacentermap.com/usa/california/santa-clara/641-walsh/
Cologix SV1,california,37.36751391096377,-121.9638310927645,20,,,https://www.datacentermap.com/usa/california/santa-clara/cologix-sv1/
EdgeConneX Santa Clara - EDCSVC02,california,37.3643203,-121.9587891,1.8,,https://www.edgeconnex.com/locations/americas/santa-clara-ca/?utm_source=datacentermap.com,https://www.datacentermap.com/usa/california/santa-clara/svcolo-santa-clara/
2403 Walsh St (SJC19),california,37.369543,-121.968551,,,,https://www.datacentermap.com/usa/california/santa-clara/2403-walsh-street/
GDC - Silicon Valley SV1 Data Center,california,37.3697388,-121.9567825,16,,https://services.global.ntt/en-us/services-and-products/global-data-centers/global-locations/americas/silicon-valley-sv1-data-center?utm_source=datacentermap.com,https://www.datacentermap.com/usa/california/santa-clara/ntt-silicon-valley-sv1/
2401 Walsh St (SJC18),california,37.369545,-121.9685,,,,https://www.datacentermap.com/usa/california/santa-clara/2401-walsh-street/
Equinix SV4,california,37.4145265,-122.0146732,8,,https://www.equinix.com/?utm_source=datacentermap.com,https://www.datacentermap.com/usa/california/santa-clara/equinix-sunnyvale/
Prime Santa Clara - 1231 Comstock,california,37.3749613,-121.9548655,9,1.25,https://primedatacenters.com/santa-clara-data-centers/?utm_source=datacentermap.com,https://www.datacentermap.com/usa/california/santa-clara/prime-santa-clara-2/
Prime Santa Clara - 1111 Comstock,california,37.3749112,-121.9532543,9,1.25,https://primedatacenters.com/santa-clara-data-centers/?utm_source=datacentermap.com,https://www.datacentermap.com/usa/california/santa-clara/prime-santa-clara-1/
CoreSite Silicon Valley (SV9),california,37.375177,-121.9696175,34,,https://www.coresite.com/?utm_source=datacentermap.com,https://www.datacentermap.com/usa/california/santa-clara/coresite-silicon-valley-sv9/
DataBank SFO1 - Silicon Valley,california,37.40736,-121.9660075,3,,https://www.databank.com/?utm_source=datacentermap.com,https://www.datacentermap.com/usa/california/santa-clara/databank-sfo1/
CoreSite Santa Clara (SV3),california,37.3751356,-121.9717501,,,https://www.coresite.com/data-center/sv3-santa-clara-ca?utm_source=datacentermap.com,https://www.datacentermap.com/usa/california/santa-clara/coresite-sv3/
Csquare - Silicon Valley SFO1-A,california,37.371351,-121.969356,4.8,,https://centersquaredc.com/data-centers?utm_source=datacentermap.com,https://www.datacentermap.com/usa/california/santa-clara/cyxtera-sfo1a/
Equinix SV2,california,37.3781646,-121.9549689,,,https://www.equinix.com/?utm_source=datacentermap.com,https://www.datacentermap.com/usa/california/santa-clara/equinix-santa-clara/
Csquare - Silicon Valley SFO2-A,california,37.398456,-121.980934,6,,https://centersquaredc.com/data-centers?utm_source=datacentermap.com,https://www.datacentermap.com/usa/california/santa-clara/cyxtera-sfo2a/
EdgeCore Silicon Valley SV01,california,37.383792,-121.965393,36,1.3,https://edgecore.com/locations/silicon-valley/?utm_source=datacentermap.com,https://www.datacentermap.com/usa/california/santa-clara/edgecore-silicon-valley-sv01/
Csquare - Silicon Valley SFO4-A,california,37.3757193,-121.9551544,3.3,,https://centersquaredc.com/data-centers?utm_source=datacentermap.com,https://www.datacentermap.com/usa/california/santa-clara/centersquare-silicon-valley-sfo4-a/
Csquare - Silicon Valley SFO4-B,california,37.3759473,-121.9559875,3.3,,https://centersquaredc.com/data-centers?utm_source=datacentermap.com,https://www.datacentermap.com/usa/california/santa-clara/centersquare-silicon-valley-sfo4-b/
CoreSite Santa Clara (SV8),california,37.3773733,-121.9718466,18,,https://www.coresite.com/data-center-locations/silicon-valley?utm_source=datacentermap.com,https://www.datacentermap.com/usa/california/santa-clara/coresite-santa-clara-sv8/
CoreSite Santa Clara (SV7),california,37.37601069999999,-121.973083,,,https://www.coresite.com/data-center-locations/silicon-valley?utm_source=datacentermap.com,https://www.datacentermap.com/usa/california/santa-clara/coresite-santa-clara-sv7/
Evocative SJC11,california,37.389437,-121.962005,9,,https://evocative.com/data-centers/santa-clara-ca-data-center-sjc11/?utm_source=datacentermap.com,https://www.datacentermap.com/usa/california/santa-clara/internap-santa-clara/
Csquare - Silicon Valley SFO1-B,california,37.370435,-121.969822,4.8,,https://centersquaredc.com/data-centers?utm_source=datacentermap.com,https://www.datacentermap.com/usa/california/santa-clara/cyxtera-sfo1b/
STACK Infrastructure SVY02A,california,37.3620353,-121.9537891,48,,https://www.stackinfra.com/locations/silicon-valley/?data_center=svy02a&utm_source=datacentermap.com,https://www.datacentermap.com/usa/california/santa-clara/stack-infrastructure-svy02a/
CyrusOne SCV1 - Santa Clara,california,37.3680878,-121.9425115,67.5,1.23,https://www.cyrusone.com/?utm_source=datacentermap.com,https://www.datacentermap.com/usa/california/santa-clara/cyrusone-scv1/
Colovore SJC01,california,37.376671,-121.953162,9,,https://www.colovore.com/data-center/data-center-1?utm_source=datacentermap.com,https://www.datacentermap.com/usa/california/santa-clara/colovore/
Equinix SV14,california,37.37495,-121.988496,,,https://www.equinix.com/?utm_source=datacentermap.com,https://www.datacentermap.com/usa/california/santa-clara/equinix-sv14/
Csquare - Silicon Valley SFO2-B,california,37.397719,-121.98088,7.6,,https://centersquaredc.com/data-centers?utm_source=datacentermap.com,https://www.datacentermap.com/usa/california/santa-clara/cyxtera-sfo2b/
Prime Santa Clara - 2215 Martin,california,37.3670384,-121.9628064,9,1.25,https://primedatacenters.com/santa-clara-data-centers/?utm_source=datacentermap.com,https://www.datacentermap.com/usa/california/santa-clara/prime-santa-clara-3/
Intel Santa Clara (D2P3),california,37.38758435282337,-121.963606431173,31,1.06,https://www.intel.com/?utm_source=datacentermap.com,https://www.datacentermap.com/usa/california/santa-clara/intel-santa-clara-d2p3/
Equinix SV15,california,37.37549,-121.98853,,,https://www.equinix.com/?utm_source=datacentermap.com,https://www.datacentermap.com/usa/california/santa-clara/equinix-sv15/
Equinix SV16,california,37.3763123119311,-121.9883228564838,,,https://www.equinix.com/?utm_source=datacentermap.com,https://www.datacentermap.com/usa/california/santa-clara/equinix-sv16/
Evocative SJC14,california,37.3749408,-121.955932,9,,https://evocative.com/data-centers/santa-clara-ca-data-center-sjc14/?utm_source=datacentermap.com,https://www.datacentermap.com/usa/california/santa-clara/evocative-sjc14/
Evocative SJC3,california,37.3780424,-121.9541355,,,https://evocative.com/data-centers/santa-clara-ca-data-center-sjc3/?utm_source=datacentermap.com,https://www.datacentermap.com/usa/california/santa-clara/wave-hosting/
EdgeCore Silicon Valley SV02,california,37.384517,-121.966051,36,1.3,https://edgecore.com/locations/silicon-valley/?utm_source=datacentermap.com,https://www.datacentermap.com/usa/california/santa-clara/edgecore-silicon-valley-sv02/
Colovore SJC02,california,37.3773412,-121.9530364,9,1.1,https://www.colovore.com/sjc02/?utm_source=datacentermap.com,https://www.datacentermap.com/usa/california/santa-clara/colovore-sjc02/
Connect Santa Clara,california,37.3755405640663,-121.9476626925453,50,,https://connectdatacenter.com/?utm_source=datacentermap.com,https://www.datacentermap.com/usa/california/santa-clara/connect-santa-clara/
EdgeCore Silicon Valley Campus,california,37.383149,-121.965308,99,1.3,https://edgecore.com/?utm_source=datacentermap.com,https://www.datacentermap.com/usa/california/santa-clara/silicon-valley-campus/
CoreSite Santa Clara (SV4),california,37.3762667,-121.9707018,,,https://www.coresite.com/data-center-locations/silicon-valley?utm_source=datacentermap.com,https://www.datacentermap.com/usa/california/santa-clara/coresite-sv4/
Vantage CA3 - Santa Clara III,california,37.3707768,-121.9745047,64,,https://vantage-dc.com/data-center/santa-clara-iii-california/?utm_source=datacentermap.com,https://www.datacentermap.com/usa/california/santa-clara/vantage-ca3-santa-clara-iii/
Datacate Santa Clara,california,37.3894282,-121.9622415,,,https://www.datacate.net/colocation/santa-clara-california/?utm_source=datacentermap.com,https://www.datacentermap.com/usa/california/santa-clara/datacate-santa-clara/
Amazon AWS SFO - Mission College Campus,california,37.38990864152262,-121.966772987255,,,https://aws.amazon.com/compliance/data-center/data-centers/?utm_source=datacentermap.com,https://www.datacentermap.com/usa/california/santa-clara/aws-sfo-mission-college-campus/
OpenColo - SC1,california,37.37905576808189,-121.9559777668448,,,http://www.opencolo.com?utm_source=datacentermap.com,https://www.datacentermap.com/usa/california/santa-clara/sc1/
CoreSite Santa Clara,california,37.3732615,-121.9760765,72,,https://www.lightedge.com/?utm_source=datacentermap.com,https://www.datacentermap.com/usa/california/santa-clara/lightedge-santa-clara/
CloudHQ SJC1,california,37.35936,-121.94266,42,,https://cloudhq.com/campus/sjc-campus/?utm_source=datacentermap.com,https://www.datacentermap.com/usa/california/santa-clara/cloudhq-sjc1/
China Telecom Santa Clara,california,37.3939384,-121.9781644,,,https://idcms.chinatelecomglobal.com/index/colocation?utm_source=datacentermap.com,https://www.datacentermap.com/usa/california/santa-clara/china-telecom-santa-clara/
Amazon AWS SFO - 960 Central,california,37.372741,-121.953591,,,https://aws.amazon.com/compliance/data-center/data-centers/?utm_source=datacentermap.com,https://www.datacentermap.com/usa/california/santa-clara/amazon-aws-sfo-960-central/
StratCap Santa Clara,california,37.3798125,-121.9499101,,,https://www.stratcapwireless.com/?utm_source=datacentermap.com,https://www.datacentermap.com/usa/california/santa-clara/stratcap-santa-clara/
CoreSite Santa Clara (SV5),california,37.375217,-121.970755,,,https://www.coresite.com/data-center-locations/silicon-valley?utm_source=datacentermap.com,https://www.datacentermap.com/usa/california/santa-clara/coresite-santa-clara-sv5/
Amazon AWS SFO - 2305 Mission A,california,37.38990437937666,-121.9661507147906,,,https://aws.amazon.com/compliance/data-center/data-centers/?utm_source=datacentermap.com,https://www.datacentermap.com/usa/california/santa-clara/amazon-aws-sfo-2305-mission-a/
CoreSite Santa Clara (SV6),california,37.3763287,-121.9720716,,,https://www.coresite.com/?utm_source=datacentermap.com,https://www.datacentermap.com/usa/california/santa-clara/ns3i/
Amazon AWS SFO - 2305 Mission B,california,37.38986602005222,-121.9678887861565,,,https://aws.amazon.com/compliance/data-center/data-centers/?utm_source=datacentermap.com,https://www.datacentermap.com/usa/california/santa-clara/amazon-aws-sfo-2305-mission-b/
Vantage CA1 - Building 5,california,37.37310989851438,-121.9725210350802,,,https://vantage-dc.com/data-center-locations/north-america/santa-clara-i-california/?utm_source=datacentermap.com,https://www.datacentermap.com/usa/california/santa-clara/vantage-ca1-building-5/
EdgeConneX Santa Clara - EDCSVC01,california,37.3635635,-121.9574714,,,https://www.edgeconnex.com/locations/americas/santa-clara-ca/?utm_source=datacentermap.com,https://www.datacentermap.com/usa/california/santa-clara/edgeconnex-santa-clara-edcsvc01/
IBM SJC01,california,37.3782765,-121.9581228,,,https://www.ibm.com/cloud?utm_source=datacentermap.com,https://www.datacentermap.com/usa/california/santa-clara/softlayer-sjc011/
Vantage CA1 - Santa Clara I Campus,california,37.37262811189316,-121.9726042949565,,,https://vantage-dc.com/data-center-locations/north-america/santa-clara-i-california/?utm_source=datacentermap.com,https://www.datacentermap.com/usa/california/santa-clara/vantage-ca1-santa-clara-i-campus/
Vantage CA2 - Building 2,california,37.3643078,-121.9463541,,,https://vantage-dc.com/data-center-locations/north-america/santa-clara-ii-california/?utm_source=datacentermap.com,https://www.datacentermap.com/usa/california/santa-clara/vantage-ca2-building-2/
Vantage CA2 - Building 3,california,37.3643078,-121.9463541,,,https://vantage-dc.com/data-center-locations/north-america/santa-clara-ii-california/?utm_source=datacentermap.com,https://www.datacentermap.com/usa/california/santa-clara/vantage-ca2-building-3/
Vantage CA2 - Building 1,california,37.36403374351696,-121.9476977573741,,,https://vantage-dc.com/data-center-locations/north-america/santa-clara-ii-california/?utm_source=datacentermap.com,https://www.datacentermap.com/usa/california/santa-clara/vantage-ca2-building-1/
Vantage CA1 - Building 4,california,37.3719723,-121.9738566,,,https://vantage-dc.com/data-center-locations/north-america/santa-clara-i-california/?utm_source=datacentermap.com,https://www.datacentermap.com/usa/california/santa-clara/vantage-ca1-building-4/
Vantage CA1 - Building 6,california,37.3736972,-121.9714647,,,https://vantage-dc.com/data-center-locations/north-america/santa-clara-i-california/?utm_source=datacentermap.com,https://www.datacentermap.com/usa/california/santa-clara/vantage-ca1-building-6/
Lumen Santa Clara 1,california,37.377137,-121.951892,,,https://www.lumen.com/?utm_source=datacentermap.com,https://www.datacentermap.com/usa/california/santa-clara/level3-santa-clara1/
Vantage CA1 - Building 3,california,37.37357686284185,-121.9726853104484,,,https://vantage-dc.com/data-center-locations/north-america/santa-clara-i-california/?utm_source=datacentermap.com,https://www.datacentermap.com/usa/california/santa-clara/vantage-ca1-building-3/
Vantage CA1 - Building 2,california,37.3717796,-121.9725126,,,https://vantage-dc.com/data-center-locations/north-america/santa-clara-i-california/?utm_source=datacentermap.com,https://www.datacentermap.com/usa/california/santa-clara/vantage-ca1-building-2/
Vantage CA2 -Santa Clara II Campus,california,37.36413077518475,-121.9468310439461,,,https://vantage-dc.com/data-center-locations/north-america/santa-clara-ii-california/?utm_source=datacentermap.com,https://www.datacentermap.com/usa/california/santa-clara/vantage-ca2-santa-clara-ii-campus/
Tata Communications Santa Clara,california,37.3758323,-121.9533126,,,https://www.tatacommunications.com/?utm_source=datacentermap.com,https://www.datacentermap.com/usa/california/santa-clara/tata-santa-clara/
Fortress Data Centers,california,37.7825822,-122.3917644,5,,http://www.fortressdc.com?utm_source=datacentermap.com,https://www.datacentermap.com/usa/california/san-francisco/fortress-data-centers/
200 Paul Avenue (SFO10),california,37.7236415,-122.3979821,15.3,,,https://www.datacentermap.com/usa/california/san-francisco/200-paul-avenue/
365 Main Street (SFO12),california,37.7886687,-122.3905089,8.6,,,https://www.datacentermap.com/usa/california/san-francisco/365-main-st/
Novva San Francisco,california,37.7244565,-122.3991026,36,,https://www.novva.com/data-center-facilities/san-francisco-ca/?utm_source=datacentermap.com,https://www.datacentermap.com/usa/california/san-francisco/novva-san-francisco/
Colocation America SFDC1,california,37.722871,-122.397683,,,https://www.colocationamerica.com/data-center-locations/san-francisco?utm_source=datacentermap.com,https://www.datacentermap.com/usa/california/san-francisco/colocation-america-200-paul/
Fastmetrics 360 Spear Street,california,37.7892771,-122.3901741,,,https://www.fastmetrics.com/?utm_source=datacentermap.com,https://www.datacentermap.com/usa/california/san-francisco/fastmetrics-360-spear/
Csquare - Silicon Valley SFO3-A,california,37.372414,-121.986396,3.2,,https://centersquaredc.com/data-centers?utm_source=datacentermap.com,https://www.datacentermap.com/usa/california/san-francisco/cyxtera-sfo3a/
UnitedLayer San Francisco,california,37.723698,-122.398056,,,https://www.unitedlayer.com/colocation-san-francisco/?utm_source=datacentermap.com,https://www.datacentermap.com/usa/california/san-francisco/unitedlayer-san-francisco/
Fastmetrics 365 Main Street,california,37.7886,-122.390842,,,https://www.fastmetrics.com/?utm_source=datacentermap.com,https://www.datacentermap.com/usa/california/san-francisco/fastmetrics-365-main/
Csquare - Silicon Valley SFO3-B,california,37.373596,-121.988951,8,,https://centersquaredc.com/data-centers?utm_source=datacentermap.com,https://www.datacentermap.com/usa/california/san-francisco/cyxtera-sfo3b/
Guadalupe Quarry Redevelopment Project,california,37.68511300264735,-122.4222950600561,,,https://brisbanequarry.com/?utm_source=datacentermap.com,https://www.datacentermap.com/usa/california/san-francisco/guadalupe-quarry-redevelopment-project/
Lumen San Francisco 1,california,37.775979,-122.393213,,,https://www.lumen.com/en-us/home.html?utm_source=datacentermap.com,https://www.datacentermap.com/usa/california/san-francisco/level3-san-francisco/
Data Canopy - San Francisco,california,37.779562,-122.393666,,,https://datacanopy.com/data-centers/san-francisco-ca/?utm_source=datacentermap.com,https://www.datacentermap.com/usa/california/san-francisco/hosting-san-francisco/
Lumen San Francisco 3,california,37.7233428,-122.3978233,,,https://www.lumen.com/?utm_source=datacentermap.com,https://www.datacentermap.com/usa/california/san-francisco/level3-san-francisco3/
360 Spear Street,california,37.7888854,-122.3902738,,,https://360spearstreet.com/?utm_source=datacentermap.com,https://www.datacentermap.com/usa/california/san-francisco/jma-wired/
T5 Data Centers - T5@Silicon Valley,california,37.5101524,-122.0018832,8.5,,https://t5datacenters.com/locations/silicon-valley/?utm_source=datacentermap.com,https://www.datacentermap.com/usa/california/fremont/t5-data-centers-t5silicon-valley/
Prime Silicon Valley - Hayward,california,37.6260838,-122.1134605,20,,https://primedatacenters.com/?utm_source=datacentermap.com,https://www.datacentermap.com/usa/california/fremont/prime-hayward/
Apple Newark Data Center,california,37.5099076,-122.001852,,,https://www.apple.com/?utm_source=datacentermap.com,https://www.datacentermap.com/usa/california/fremont/apple-newark-data-center/
Hurricane Electric Fremont 2,california,37.4718685,-121.9203136,,,https://he.net/tour/fremont2.html?utm_source=datacentermap.com,https://www.datacentermap.com/usa/california/fremont/he-freemont2/
37887 Shinn Street,california,37.5666972,-121.9836371,,,https://www.valleyoakpartners.com/?utm_source=datacentermap.com,https://www.datacentermap.com/usa/california/fremont/37887-shinn-street/
Hurricane Electric Fremont 1,california,37.4898735,-121.9309835,,,https://he.net/tour/fremont1.html?utm_source=datacentermap.com,https://www.datacentermap.com/usa/california/fremont/he-freemont1/
Cogent Data Center - Palm Springs,california,33.8626098,-116.545928,,,https://www.cogentco.com/en/?utm_source=datacentermap.com,https://www.datacentermap.com/usa/california/riverside/cogent-data-center-palm-springs/
Viridio Solar Powered Data Center,california,33.748108,-117.152151,,,https://viridio.net/?utm_source=datacentermap.com,https://www.datacentermap.com/usa/california/riverside/aisonet/
Acorn Technology Services Data Center,california,33.9937329,-117.3469228,,,https://acorntechservices.com/?utm_source=datacentermap.com,https://www.datacentermap.com/usa/california/riverside/marquisnet-riverside/
Cogent Data Center - Livermore,california,37.7602557,-121.7992142,,,https://cogentco.com/en/cogent-bay-area?utm_source=datacentermap.com,https://www.datacentermap.com/usa/california/hayward/cogent-data-center-livermore/
Lumen Hayward 1,california,37.6384934,-122.1299872,,,https://www.lumen.com/?utm_source=datacentermap.com,https://www.datacentermap.com/usa/california/hayward/lumen-hayward-1/
Lumen Riverside 1,california,33.996958,-117.345705,,,https://www.lumen.com/?utm_source=datacentermap.com,https://www.datacentermap.com/usa/california/riverside/level3-riverside1/
STACK Infrastructure SVY03A,california,37.6271174,-122.1191572,67.2,,https://www.stackinfra.com/?utm_source=datacentermap.com,https://www.datacentermap.com/usa/california/hayward/stack-infrastructure-svy03a/
Equinix LA4,california,33.9216329,-118.3840239,,,https://www.equinix.com/?utm_source=datacentermap.com,https://www.datacentermap.com/usa/california/el-segundo/equinix-el-segundo/
200 North Nash Street (LAX11),california,33.91773,-118.386525,,,,https://www.datacentermap.com/usa/california/el-segundo/200-north-nash-street/
Evocative LAX10,california,33.9156634,-118.38472,,,https://evocative.com/data-centers/los-angeles-ca-data-center-lax10/?utm_source=datacentermap.com,https://www.datacentermap.com/usa/california/el-segundo/evocative-lax10/
Digital West Data Center,california,35.2481119,-120.6422232,,,https://www.digitalwest.com/solutions/colocation/san-luis-obispo-ca/?utm_source=datacentermap.com,https://www.datacentermap.com/usa/california/san-luis-obispo/sbp1/
H5 Data Centers San Luis Obispo,california,35.2557768,-120.6407522,,,https://h5datacenters.com/san-luis-obispo-data-center.html?utm_source=datacentermap.com,https://www.datacentermap.com/usa/california/san-luis-obispo/h5-san-luis-obispo/
NYGC Bakersfield,california,35.576316,-119.006553,45,,https://nygc.ai/?utm_source=datacentermap.com,https://www.datacentermap.com/usa/california/bakersfield/nygc-bakersfield/
Lumen San Luis Obispo 1,california,35.2567674,-120.6445067,,,https://www.lumen.com/?utm_source=datacentermap.com,https://www.datacentermap.com/usa/california/san-luis-obispo/level3-san-luis-obispo1/
Lumen San Luis Obispo 2,california,35.2516942,-120.6674506,,,https://www.lumen.com/?utm_source=datacentermap.com,https://www.datacentermap.com/usa/california/san-luis-obispo/level3-san-luis-obispo2/
Lumen Bakersfield 2,california,35.373399,-119.017953,,,https://www.lumen.com/en-us/home.html?utm_source=datacentermap.com,https://www.datacentermap.com/usa/california/bakersfield/twtc-bakersfield/
Lumen Bakerfield 1,california,35.37783,-119.011412,,,https://www.lumen.com/?utm_source=datacentermap.com,https://www.datacentermap.com/usa/california/bakersfield/level3-bakerfield1/
Ayera Modesto City Tower,california,37.6385301,-120.99852,,,https://www.ayera.com/?utm_source=datacentermap.com,https://www.datacentermap.com/usa/california/modesto/ayera-city-tower/
Lumen Modesto,california,37.645314,-121.0003818,,,https://www.lumen.com/?utm_source=datacentermap.com,https://www.datacentermap.com/usa/california/modesto/level3-modesto/
Unwired FAT1,california,36.8464008,-119.7994141,,,http://getunwired.com?utm_source=datacentermap.com,https://www.datacentermap.com/usa/california/fresno/unwired-fat1/
Lumen Fresno 2,california,36.847527,-119.795865,,,https://www.lumen.com/en-us/home.html?utm_source=datacentermap.com,https://www.datacentermap.com/usa/california/fresno/twtc-fresno/
Lumen Fresno 1,california,36.747506,-119.8150478,,,https://www.lumen.com/?utm_source=datacentermap.com,https://www.datacentermap.com/usa/california/fresno/level3-fresno1/
Impulse Santa Barbara,california,34.4223644,-119.7062586,,,https://impulse.net/cloud/colocation?utm_source=datacentermap.com,https://www.datacentermap.com/usa/california/santa-barbara/santa-barbara/
Lumen Santa Barbara,california,34.414414,-119.690154,,,https://www.lumen.com/?utm_source=datacentermap.com,https://www.datacentermap.com/usa/california/santa-barbara/level3-santa-barbara/
CalEthos Campus Site 1,california,33.172897,-115.52351,500,,https://calethos.com/?utm_source=datacentermap.com,https://www.datacentermap.com/usa/california/el-centro/calethos-campus-site-1/
CalEthos Campus Site 2,california,33.172883,-115.531097,500,,https://calethos.com/?utm_source=datacentermap.com,https://www.datacentermap.com/usa/california/el-centro/calethos-campus-site-2/
CalEthos Site 1 - Building 5,california,33.174909,-115.525862,,,https://calethos.com/?utm_source=datacentermap.com,https://www.datacentermap.com/usa/california/el-centro/calethos-site-1-building-5/
CalEthos Site 1 - Building 3,california,33.173859,-115.521122,,,https://calethos.com/?utm_source=datacentermap.com,https://www.datacentermap.com/usa/california/el-centro/calethos-site-1-building-3/
CalEthos Site 1 - Building 2,california,33.171979,-115.521122,,,https://calethos.com/?utm_source=datacentermap.com,https://www.datacentermap.com/usa/california/el-centro/calethos-site-1-building-2/
CalEthos Site 1 - Building 4,california,33.175724,-115.521158,,,https://calethos.com/?utm_source=datacentermap.com,https://www.datacentermap.com/usa/california/el-centro/calethos-site-1-building-4/
CalEthos Site 2 - Building 2,california,33.171876,-115.533262,,,https://calethos.com/?utm_source=datacentermap.com,https://www.datacentermap.com/usa/california/el-centro/calethos-site-2-building-2/
CalEthos Site 2 - Building 4,california,33.175684,-115.533236,,,https://calethos.com/?utm_source=datacentermap.com,https://www.datacentermap.com/usa/california/el-centro/calethos-site-2-building-4/
CalEthos Site 1 - Building 1,california,33.169966,-115.521122,,,https://calethos.com/?utm_source=datacentermap.com,https://www.datacentermap.com/usa/california/el-centro/calethos-site-1-building-1/
CalEthos Site 2 - Building 5,california,33.174775,-115.528657,,,https://calethos.com/?utm_source=datacentermap.com,https://www.datacentermap.com/usa/california/el-centro/calethos-site-2-building-5/
CalEthos Site 2 - Building 3,california,33.173812,-115.533268,,,https://calethos.com/?utm_source=datacentermap.com,https://www.datacentermap.com/usa/california/el-centro/calethos-site-2-building-3/
CalEthos Site 2 - Building 1,california,33.169935,-115.53319,,,https://calethos.com/?utm_source=datacentermap.com,https://www.datacentermap.com/usa/california/el-centro/calethos-site-2-building-1/
NYGC Buena Vista,california,38.277501,-120.913568,41,,https://nygc.ai/?utm_source=datacentermap.com,https://www.datacentermap.com/usa/california/jackson-ca/nygc-buena-vista/
Imperial Data Center,california,32.8200229668569,-115.5600984480777,330,,https://www.imperialdatacenter.com/infrastructure?utm_source=datacentermap.com,https://www.datacentermap.com/usa/california/imperial/imperial-data-center/
Csquare - Los Angeles LAX4-A,california,33.92448928740774,-118.3210578715873,28,,https://centersquaredc.com/data-centers?utm_source=datacentermap.com,https://www.datacentermap.com/usa/california/hawthorne/evoque-hawthorne-lax1/
NYGC Loyalton,california,39.67031611105199,-120.2419460670378,10,,https://nygc.ai/?utm_source=datacentermap.com,https://www.datacentermap.com/usa/california/loyalton/nygc-loyalton/
EdgeConneX Arcata - EDCACV01,california,40.872135,-124.0908738,,,https://www.edgeconnex.com/es/?utm_source=datacentermap.com,https://www.datacentermap.com/usa/california/eureka/edgeconnex-arcata-edcacv01/
3015 Winona Avenue (BUR10),california,34.1998625,-118.3437949,,,,https://www.datacentermap.com/usa/california/burbank/3015-winona-avenue/
720 2nd Street (OAK10),california,37.7990209,-122.2825072,7.5,,,https://www.datacentermap.com/usa/california/oakland/720-2nd-st/
Lumen Tustin,california,33.717553,-117.806486,,,https://www.lumen.com/en-us/home.html?utm_source=datacentermap.com,https://www.datacentermap.com/usa/california/tustin/level3-tustin/
Astound Mountain View DC,california,37.41552,-122.08199,,,https://www.astound.com/business/?utm_source=datacentermap.com,https://www.datacentermap.com/usa/california/mountain-view/layer42-networks/
Lumen Oakland,california,37.836074,-122.287463,,,https://www.lumen.com/en-us/home.html?utm_source=datacentermap.com,https://www.datacentermap.com/usa/california/emeryville/level3-oakland/
Lumen Emeryville 1,california,37.835026,-122.286697,,,https://www.lumen.com/en-us/home.html?utm_source=datacentermap.com,https://www.datacentermap.com/usa/california/emeryville/level3-5000-hollis/
Impulse Goleta,california,34.4398876,-119.8348866,,,https://impulse.net/cloud/colocation?utm_source=datacentermap.com,https://www.datacentermap.com/usa/california/goleta/goleta/
Got.Net Santa Cruz,california,36.9821667,-122.0309843,,,https://www.got.net/?utm_source=datacentermap.com,https://www.datacentermap.com/usa/california/santa-cruz/gotnet/
Lumen Manchester 1,california,38.9699164,-123.6869288,,,https://www.lumen.com/?utm_source=datacentermap.com,https://www.datacentermap.com/usa/california/manchester-ca/level3-manchester1/
