Name,State,Latitude,Longitude,IT Load (MW),PUE,Website,Source URL
Crown Castle Springfield (MA1),massachusetts,42.1100177,-72.5764883,,,https://www.crowncastle.com/infrastructure-solutions/colocation?utm_source=datacentermap.com,https://www.datacentermap.com/usa/massachusetts/springfield-ma/crown-castle-ma1/
Massachusetts Green HPC Center,massachusetts,42.202523,-72.60784749999999,30,,https://www.mghpcc.org/services/?utm_source=datacentermap.com,https://www.datacentermap.com/usa/massachusetts/holyoke/massachusetts-green-hpc-center/
Cogent Data Center - Springfield,massachusetts,42.113001,-72.5836369,2.3,,https://www.cogentco.com/en/cogent-boston?utm_source=datacentermap.com,https://www.datacentermap.com/usa/massachusetts/springfield-ma/cogent-data-center-springfield/
Lumen Springfield 1,massachusetts,42.1100177,-72.5764883,,,https://www.lumen.com/?utm_source=datacentermap.com,https://www.datacentermap.com/usa/massachusetts/springfield-ma/lumen-springfield-1/
55 Middlesex Turnpike,massachusetts,42.5087368,-71.2339647,5.1,,,https://www.datacentermap.com/usa/massachusetts/boston/55-middlesex/
128 First Avenue (BOS14),massachusetts,42.3013161,-71.2190293,11.6,,,https://www.datacentermap.com/usa/massachusetts/boston/128-first-avenue/
105 Cabot Street (BOS16),massachusetts,42.3028621,-71.2210018,2.2,,,https://www.datacentermap.com/usa/massachusetts/boston/digital-realty-105-cabot/
Iron Mountain Data Centers BOS-1,massachusetts,42.3376904,-71.6394718,3.6,1.2,https://www.ironmountain.com/data-centers/locations/boston-data-center?utm_source=datacentermap.com,https://www.datacentermap.com/usa/massachusetts/boston/iron-mountain-bos-1/
Csquare - Boston BOS4-A,massachusetts,42.36506,-71.15973,15,,https://www.evoquedcs.com/data-centers/boston?utm_source=datacentermap.com,https://www.datacentermap.com/usa/massachusetts/boston/evoque-bos1/
CoreSite Boston (BO1),massachusetts,42.3767175,-71.0797876,,,https://www.coresite.com/data-center-locations/boston?utm_source=datacentermap.com,https://www.datacentermap.com/usa/massachusetts/boston/70-innerbelt/
Evocative BOS1,massachusetts,42.3780069,-71.080328,6,,https://evocative.com/data-centers/boston-ma-data-center-bos1/?utm_source=datacentermap.com,https://www.datacentermap.com/usa/massachusetts/boston/internap-boston/
TierPoint Boston-Andover,massachusetts,42.685693,-71.208694,,,http://www.TierPoint.com?utm_source=datacentermap.com,https://www.datacentermap.com/usa/massachusetts/boston/tierpoint-boston-andover/
Equinix BO2,massachusetts,42.55075,-71.21532,,,https://www.equinix.com/?utm_source=datacentermap.com,https://www.datacentermap.com/usa/massachusetts/boston/equinix-bo2/
EdgeConneX Boston - EDCBOS01,massachusetts,42.528273,-71.249413,1.5,,https://www.edgeconnex.com/locations/americas/boston-ma/?utm_source=datacentermap.com,https://www.datacentermap.com/usa/massachusetts/boston/edgeconnex-edcbos01/
DataBank BOS1 - Downtown Boston,massachusetts,42.35517,-71.06046,0.5,,https://www.databank.com/data-centers/boston/1-summer-street/?utm_source=datacentermap.com,https://www.datacentermap.com/usa/massachusetts/boston/databank-bos1/
One Summer St.,massachusetts,42.3547503,-71.0602385,30,,https://www.markleygroup.com/?utm_source=datacentermap.com,https://www.datacentermap.com/usa/massachusetts/boston/one-summer-st/
Csquare - Boston BOS1-A,massachusetts,42.396583,-71.267667,2.4,,https://centersquaredc.com/data-centers/boston?utm_source=datacentermap.com,https://www.datacentermap.com/usa/massachusetts/boston/cyxtera-bos1a/
Expedient Data Centers - Boston,massachusetts,42.4053851,-71.0751087,3.2,,https://www.expedient.com/?utm_source=datacentermap.com,https://www.datacentermap.com/usa/massachusetts/boston/expedient-boston/
FirstLight Somerville,massachusetts,42.3767025,-71.0797634,,,http://www.colospace.com?utm_source=datacentermap.com,https://www.datacentermap.com/usa/massachusetts/boston/colospace-bostonsomerville/
Csquare - Boston BOS1-B,massachusetts,42.396444,-71.267667,3.75,,https://centersquaredc.com/data-centers/boston?utm_source=datacentermap.com,https://www.datacentermap.com/usa/massachusetts/boston/cyxtera-bos1b/
FirstLight Rockland,massachusetts,42.1662641,-70.8983473,,,https://www.colospace.com/?utm_source=datacentermap.com,https://www.datacentermap.com/usa/massachusetts/boston/rockland-data-center/
Markley Lowell,massachusetts,42.6303845,-71.3042661,,,https://www.markleygroup.com/data-center?utm_source=datacentermap.com,https://www.datacentermap.com/usa/massachusetts/boston/markley-lowell/
FirstLight Waltham,massachusetts,42.3988661,-71.253781,,,https://www.firstlight.net/?utm_source=datacentermap.com,https://www.datacentermap.com/usa/massachusetts/boston/colospace-waltham/
TierPoint Boston-Charlestown,massachusetts,42.3809868,-71.0727119,,,https://www.TierPoint.com?utm_source=datacentermap.com,https://www.datacentermap.com/usa/massachusetts/boston/hosted-solutions-boston/
Cogent Data Center - Boston,massachusetts,42.3899412,-71.2575841,0.6,,https://www.cogentco.com/?utm_source=datacentermap.com,https://www.datacentermap.com/usa/massachusetts/boston/cogent-data-center-boston/
SNS Norwood,massachusetts,42.1610759,-71.1996107,,,https://sns.com?utm_source=datacentermap.com,https://www.datacentermap.com/usa/massachusetts/boston/norwood/
Equinix BO1,massachusetts,42.3549386,-71.0630431,,,https://www.equinix.com/?utm_source=datacentermap.com,https://www.datacentermap.com/usa/massachusetts/boston/switchdata-boston/
Prov.net Boston North,massachusetts,42.5970854,-71.3313828,,,http://prov.net?utm_source=datacentermap.com,https://www.datacentermap.com/usa/massachusetts/boston/boston-north/
Lumen Cambridge 1,massachusetts,42.3676978,-71.0868327,,,https://www.lumen.com/en-us/home.html?utm_source=datacentermap.com,https://www.datacentermap.com/usa/massachusetts/boston/level3-boston/
Verizon Boston #2,massachusetts,42.3694763,-71.0879818,,,https://www.verizon.com/business/?utm_source=datacentermap.com,https://www.datacentermap.com/usa/massachusetts/boston/xo-boston2/
Verizon Boston,massachusetts,42.3452065,-71.0419891,,,https://www.verizon.com/business/?utm_source=datacentermap.com,https://www.datacentermap.com/usa/massachusetts/boston/xo-boston/
Csquare - Boston BOS1-C,massachusetts,42.39695377497947,-71.26821398735046,,,https://centersquaredc.com/data-centers/boston?utm_source=datacentermap.com,https://www.datacentermap.com/usa/massachusetts/boston/cyxtera-bos1c/
Crown Castle Boston,massachusetts,42.3812872,-71.080081,,,https://www.crowncastle.com/?utm_source=datacentermap.com,https://www.datacentermap.com/usa/massachusetts/boston/rcn-metro-56-roland/
Lumen Cambridge 2,massachusetts,42.3621656,-71.0799907,,,https://www.lumen.com/?utm_source=datacentermap.com,https://www.datacentermap.com/usa/massachusetts/boston/level3-cambridge2/
TierPoint Boston-Marlborough,massachusetts,42.7167588,-70.9731097,,,https://www.tierpoint.com?utm_source=datacentermap.com,https://www.datacentermap.com/usa/massachusetts/marlborough/access-northeast/
365 Data Centers - Marlboro,massachusetts,42.3524862,-71.5860847,2.8,,https://365datacenters.com/?utm_source=datacentermap.com,https://www.datacentermap.com/usa/massachusetts/marlborough/sungard-250-locke/
Crown Castle Marlborough (MA2),massachusetts,42.314471,-71.5800491,4,,https://www.crowncastle.com/infrastructure-solutions/colocation?utm_source=datacentermap.com,https://www.datacentermap.com/usa/massachusetts/marlborough/lightower-marlborough/
Colocation America BOSTONDC1,massachusetts,42.3129021,-71.57925709999999,,,https://www.colocationamerica.com/data-center-locations/boston?utm_source=datacentermap.com,https://www.datacentermap.com/usa/massachusetts/marlborough/colocation-america-bostondc1/
Synoptek - Boston Data Center,massachusetts,42.3367942,-71.5942634,,,https://synoptek.com/?utm_source=datacentermap.com,https://www.datacentermap.com/usa/massachusetts/marlborough/earthlink-boston/
34 St. Martin Drive,massachusetts,42.7167588,-70.9731097,,,https://www.rreefpropertytrust.com?utm_source=datacentermap.com,https://www.datacentermap.com/usa/massachusetts/marlborough/34-st-martin-drive/
Crown Castle Worcester (MA3),massachusetts,42.2623616,-71.8030857,1,,https://www.crowncastle.com/infrastructure-solutions/colocation?utm_source=datacentermap.com,https://www.datacentermap.com/usa/massachusetts/worcester/lightower-worcester/
Cogent Data Center - Worcester,massachusetts,42.2537905,-71.8080499,,,https://www.cogentco.com/en/cogent-boston?utm_source=datacentermap.com,https://www.datacentermap.com/usa/massachusetts/worcester/cogent-data-center-worcester/
Lumen Worcester 1,massachusetts,42.2624592,-71.8027476,,,https://www.lumen.com/?utm_source=datacentermap.com,https://www.datacentermap.com/usa/massachusetts/worcester/lumen-worcester-1/
Congruity360 Data Center,massachusetts,41.702821,-71.146725,,,https://www.congruity360.com?utm_source=datacentermap.com,https://www.datacentermap.com/usa/massachusetts/fall-river/granite-block-data/
MegaNet Massachusetts Datacenter,massachusetts,41.6986693,-71.1505242,,,https://meganet.net/services/colo/?utm_source=datacentermap.com,https://www.datacentermap.com/usa/massachusetts/fall-river/meganet-ma-datacenter/
Fitchburg Fiber 166 Boulder,massachusetts,42.58219197767967,-71.80123688217682,,,https://fbfiber.net/business?utm_source=datacentermap.com,https://www.datacentermap.com/usa/massachusetts/fitchburg/fitchburg-166-boulder/
NaviSite Andover,massachusetts,42.6959879,-71.2109422,,,https://www.navisite.com/services/colocation/?utm_source=datacentermap.com,https://www.datacentermap.com/usa/massachusetts/andover/navisite-andover/
Lightpath Data Center,massachusetts,42.3673581,-71.0867568,,,https://lightpathfiber.com/?utm_source=datacentermap.com,https://www.datacentermap.com/usa/massachusetts/cambridge-ma/cambridge-network-solutions/
Codman Hill Rd,massachusetts,42.4849864,-71.5481925,,,http://stubblebinecompany.com?utm_source=datacentermap.com,https://www.datacentermap.com/usa/massachusetts/acton-boxborough/codman-hill-rd/
