Name,State,Latitude,Longitude,IT Load (MW),PUE,Website,Source URL
Iron Mountain Data Centers VA-1,virginia,38.77792264250294,-77.54703012251925,13,1.2,https://www.ironmountain.com/data-centers/locations/virginia-data-center?utm_source=datacentermap.com,https://www.datacentermap.com/usa/virginia/manassas/iron-mountain-va-1/
10051 Brickyard Wy,virginia,38.7369178,-77.5078273,,,,https://www.datacentermap.com/usa/virginia/manassas/10051-brickyard-wy/
9905 Godwin Drive (IAD53),virginia,38.7404104,-77.5040386,,,,https://www.datacentermap.com/usa/virginia/manassas/digital-realty-9905-godwin-drive/
Iron Mountain Data Centers VA-2,virginia,38.77710296786073,-77.54591432365577,36,1.2,https://www.ironmountain.com/data-centers/locations/virginia-data-center?utm_source=datacentermap.com,https://www.datacentermap.com/usa/virginia/manassas/iron-mountain-va-2/
EvoSwitch Manassas (WDC1),virginia,38.7464612,-77.5330785,20,,https://evoswitch.com/?utm_source=datacentermap.com,https://www.datacentermap.com/usa/virginia/manassas/evoswitch-wdc-1/
Equinix DC14,virginia,38.80333,-77.51088,,,https://www.equinix.com/?utm_source=datacentermap.com,https://www.datacentermap.com/usa/virginia/manassas/equinix-dc14/
VAZATA NoVA I,virginia,38.7472871,-77.5318712,2,,https://www.vazata.com/data-centers/manassas-data-center-nova/?utm_source=datacentermap.com,https://www.datacentermap.com/usa/virginia/manassas/vazata-nova-i/
CloudHQ MDC Campus,virginia,38.7314131,-77.5091781,300,,https://cloudhq.com/?utm_source=datacentermap.com,https://www.datacentermap.com/usa/virginia/manassas/cloudhq-mdc-campus/
STACK Infrastructure NVA05A,virginia,38.75885494676042,-77.51648207845305,36,,https://www.stackinfra.com/locations/americas/northern-virginia/nva05/?utm_source=datacentermap.com,https://www.datacentermap.com/usa/virginia/manassas/stack-infrastructure-nva05a/
QTS Manassas DC5,virginia,38.75460616666228,-77.51739293212357,42,,https://www.qtsdatacenters.com/?utm_source=datacentermap.com,https://www.datacentermap.com/usa/virginia/manassas/qts-manassas5/
CloudHQ MCC Campus,virginia,38.72073196690473,-77.49847011861604,382,,https://cloudhq.com/?utm_source=datacentermap.com,https://www.datacentermap.com/usa/virginia/manassas/cloudhq-mcc-campus/
QTS Manassas Campus,virginia,38.7516218,-77.5112262,150,,https://www.qtsdatacenters.com/?utm_source=datacentermap.com,https://www.datacentermap.com/usa/virginia/manassas/qts-manassas-data-center-campus/
Cloud Capital - 9651 Hornbaker,virginia,38.74741286878826,-77.53174131910815,30,,https://cldcap.com/?utm_source=datacentermap.com,https://www.datacentermap.com/usa/virginia/manassas/power-loft-innovation/
Iron Mountain Data Centers VA-6,virginia,38.76806082957219,-77.53874746148891,32,,https://www.ironmountain.com/data-centers/locations/virginia-data-center?utm_source=datacentermap.com,https://www.datacentermap.com/usa/virginia/manassas/iron-mountain-va-6/
QTS Manassas DC2,virginia,38.7525638,-77.5124673,20,,https://www.qtsdatacenters.com/?utm_source=datacentermap.com,https://www.datacentermap.com/usa/virginia/manassas/qts-manassas2/
QTS Manassas DC1,virginia,38.7525053,-77.5130401,,,https://www.qtsdatacenters.com/?utm_source=datacentermap.com,https://www.datacentermap.com/usa/virginia/manassas/qts-manassas1/
STACK Infrastructure NVA05B,virginia,38.76115398805212,-77.51505369298008,48,,https://www.stackinfra.com/locations/americas/northern-virginia/nva05/?utm_source=datacentermap.com,https://www.datacentermap.com/usa/virginia/manassas/stack-infrastructure-nva05b/
Amazon AWS IAD - Tanner Campus,virginia,38.735635,-77.505307,,,https://aws.amazon.com/compliance/data-center/data-centers/?utm_source=datacentermap.com,https://www.datacentermap.com/usa/virginia/manassas/amazon-aws-iad-tanner-campus/
Microsoft Jacksonville Road Campus,virginia,38.79877467113093,-77.53349910934595,,,https://datacenters.microsoft.com/?utm_source=datacentermap.com,https://www.datacentermap.com/usa/virginia/manassas/microsoft-jacksonville-road-campus/
CloudHQ MCC3,virginia,38.7135228,-77.5000601,60,,https://cloudhq.com/?utm_source=datacentermap.com,https://www.datacentermap.com/usa/virginia/manassas/cloudhq-mcc3/
CloudHQ MCC7,virginia,38.72237573223926,-77.50134707234268,36,,https://cloudhq.com/campus/mcc-campus/?utm_source=datacentermap.com,https://www.datacentermap.com/usa/virginia/manassas/cloudhq-mcc7/
Amazon AWS IAD - Doane Campus,virginia,38.791002,-77.54747,,,https://aws.amazon.com/compliance/data-center/data-centers/?utm_source=datacentermap.com,https://www.datacentermap.com/usa/virginia/manassas/amazon-aws-iad-doane-campus/
CloudHQ MCC5,virginia,38.7198091,-77.4929744,60,,https://cloudhq.com/?utm_source=datacentermap.com,https://www.datacentermap.com/usa/virginia/manassas/cloudhq-mcc5/
CloudHQ MCC4,virginia,38.7187555,-77.4963883,60,,https://cloudhq.com/?utm_source=datacentermap.com,https://www.datacentermap.com/usa/virginia/manassas/cloudhq-mcc4/
CloudHQ MCC6A,virginia,38.7153954,-77.4964052,20,,https://cloudhq.com/?utm_source=datacentermap.com,https://www.datacentermap.com/usa/virginia/manassas/cloudhq-mcc6/
CloudHQ MCC6Z,virginia,38.71546793545276,-77.49657647794285,40,,https://cloudhq.com/campus/mcc-campus/?utm_source=datacentermap.com,https://www.datacentermap.com/usa/virginia/manassas/cloudhq-mcc6z/
Iron Mountain Data Centers VA-3,virginia,38.775430133237734,-77.54516330518996,,,https://www.ironmountain.com/data-centers/locations/virginia-data-center?utm_source=datacentermap.com,https://www.datacentermap.com/usa/virginia/manassas/iron-mountain-va-3/
Amazon AWS IAD - Mason Campus,virginia,38.790828,-77.539582,,,https://aws.amazon.com/compliance/data-center/data-centers/?utm_source=datacentermap.com,https://www.datacentermap.com/usa/virginia/manassas/amazon-aws-iad-mason-campus/
CloudHQ MCC2,virginia,38.7231852,-77.4989941,,,https://cloudhq.com/?utm_source=datacentermap.com,https://www.datacentermap.com/usa/virginia/manassas/cloudhq-mcc2/
Iron Mountain Data Centers VA-7,virginia,38.77540504036094,-77.54030314261834,36,,https://www.ironmountain.com/data-centers/locations/virginia-data-center?utm_source=datacentermap.com,https://www.datacentermap.com/usa/virginia/manassas/iron-mountain-va-7/
Iron Mountain Data Centers VA-9,virginia,38.76993861373228,-77.54067765888713,28,,https://www.ironmountain.com/data-centers/locations/virginia-data-center?utm_source=datacentermap.com,https://www.datacentermap.com/usa/virginia/manassas/iron-mountain-data-centers-va-9/
Amazon AWS IAD - Freedom Campus,virginia,38.760645,-77.51865,,,https://aws.amazon.com/compliance/data-center/data-centers/?utm_source=datacentermap.com,https://www.datacentermap.com/usa/virginia/manassas/amazon-aws-iad-freedom-campus/
Amazon AWS IAD - 8158 Sudley,virginia,38.7764555346383,-77.50833841187627,,,https://aws.amazon.com/compliance/data-center/data-centers/?utm_source=datacentermap.com,https://www.datacentermap.com/usa/virginia/manassas/amazon-aws-iad-8158-sudley/
Amazon AWS IAD - 10321 Tanner,virginia,38.734555,-77.506516,,,https://aws.amazon.com/compliance/data-center/data-centers/?utm_source=datacentermap.com,https://www.datacentermap.com/usa/virginia/manassas/amazon-aws-iad-10321-tanner/
Amazon AWS IAD - 9700 Innovation,virginia,38.747507,-77.519566,,,https://aws.amazon.com/compliance/data-center/data-centers/?utm_source=datacentermap.com,https://www.datacentermap.com/usa/virginia/manassas/amazon-aws-iad-9700-innovation/
Microsoft - MNZ02,virginia,38.798514,-77.534999,,,https://datacenters.microsoft.com/?utm_source=datacentermap.com,https://www.datacentermap.com/usa/virginia/manassas/microsoft-mnz02/
Amazon AWS IAD - Innovation Campus,virginia,38.747517,-77.519447,,,https://aws.amazon.com/compliance/data-center/data-centers/?utm_source=datacentermap.com,https://www.datacentermap.com/usa/virginia/manassas/amazon-aws-iad-innovation-campus/
Microsoft Hansen Farm,virginia,38.7814337,-77.569774,,,https://local.microsoft.com/blog/hansen-farm-datacenter-construction-update/?utm_source=datacentermap.com,https://www.datacentermap.com/usa/virginia/manassas/microsoft-hansen-farm/
Amazon AWS IAD - 8180 Bethlehem,virginia,38.778506,-77.539361,,,https://aws.amazon.com/compliance/data-center/data-centers/?utm_source=datacentermap.com,https://www.datacentermap.com/usa/virginia/manassas/amazon-aws-iad-8180-bethlehem/
OVHcloud VIN1,virginia,38.7473762,-77.67455009999999,,,https://www.ovhcloud.com/es-es/datacenters-ovhcloud/?utm_source=datacentermap.com,https://www.datacentermap.com/usa/virginia/manassas/ovhcloud-vint-hill/
STACK Infrastructure NVA02F,virginia,38.74382418605755,-77.53733091651817,,,https://www.stackinfra.com/locations/americas/northern-virginia/nva02/?utm_source=datacentermap.com,https://www.datacentermap.com/usa/virginia/manassas/stack-infrastructure-nva02f/
Amazon AWS IAD - 7080 Wellington,virginia,38.778845,-77.557087,,,https://aws.amazon.com/compliance/data-center/data-centers/?utm_source=datacentermap.com,https://www.datacentermap.com/usa/virginia/manassas/amazon-aws-iad-7080-wellington/
STACK Infrastructure NVA02G,virginia,38.74802635011257,-77.53801912060673,,,https://www.stackinfra.com/locations/americas/northern-virginia/nva02/?utm_source=datacentermap.com,https://www.datacentermap.com/usa/virginia/manassas/stack-infrastructure-nva02g/
Amazon AWS IAD - 9740 Innovation,virginia,38.746372,-77.517319,,,https://aws.amazon.com/compliance/data-center/data-centers/?utm_source=datacentermap.com,https://www.datacentermap.com/usa/virginia/manassas/amazon-aws-iad-9740-innovation/
Amazon - Dumfries Rd & Colchester Park,virginia,38.6300375,-77.41517100000002,,,https://aws.amazon.com/es/compliance/data-center/controls/?utm_source=datacentermap.com,https://www.datacentermap.com/usa/virginia/manassas/amazon-dumfries-rd-colchester-park/
Amazon AWS IAD - 7505 Mason,virginia,38.791203,-77.538204,,,https://aws.amazon.com/compliance/data-center/data-centers/?utm_source=datacentermap.com,https://www.datacentermap.com/usa/virginia/manassas/amazon-aws-iad-7505-mason/
Amazon AWS IAD - 8190 Bethlehem,virginia,38.780207,-77.539835,,,https://aws.amazon.com/compliance/data-center/data-centers/?utm_source=datacentermap.com,https://www.datacentermap.com/usa/virginia/manassas/amazon-aws-iad-8190-bethlehem/
Amazon AWS IAD - Bethlehem Campus,virginia,38.779563,-77.540861,,,https://aws.amazon.com/compliance/data-center/data-centers/?utm_source=datacentermap.com,https://www.datacentermap.com/usa/virginia/manassas/amazon-aws-iad-bethlehem-campus/
Amazon AWS IAD - 9680 Innovation,virginia,38.748492,-77.520584,,,https://aws.amazon.com/compliance/data-center/data-centers/?utm_source=datacentermap.com,https://www.datacentermap.com/usa/virginia/manassas/amazon-aws-iad-9680-innovation/
Amazon AWS IAD - 14209 Dumfries,virginia,38.6464076,-77.44362579999999,,,https://aws.amazon.com/es/compliance/data-center/?utm_source=datacentermap.com,https://www.datacentermap.com/usa/virginia/manassas/amazon-aws-iad-14209-dumfries/
COPT DC-19,virginia,38.77870300000001,-77.537466,,,https://www.copt.com/data/?utm_source=datacentermap.com,https://www.datacentermap.com/usa/virginia/manassas/copt-dc-19/
Amazon AWS IAD - 7500 Bethlehem,virginia,38.79189981189595,-77.53577536964004,,,https://aws.amazon.com/compliance/data-center/data-centers/?utm_source=datacentermap.com,https://www.datacentermap.com/usa/virginia/manassas/amazon-aws-iad-7500-bethlehem/
Amazon AWS IAD - 11800 Brewers,virginia,38.791074,-77.548313,,,https://aws.amazon.com/compliance/data-center/data-centers/?utm_source=datacentermap.com,https://www.datacentermap.com/usa/virginia/manassas/amazon-aws-iad-11800-brewers/
Amazon AWS IAD - 10301 Tanner,virginia,38.735373,-77.505722,,,https://aws.amazon.com/compliance/data-center/data-centers/?utm_source=datacentermap.com,https://www.datacentermap.com/usa/virginia/manassas/amazon-aws-iad-10301-tanner/
Amazon AWS IAD - 7070 Wellington,virginia,38.777461,-77.557848,,,https://aws.amazon.com/compliance/data-center/data-centers/?utm_source=datacentermap.com,https://www.datacentermap.com/usa/virginia/manassas/amazon-aws-iad-7070-wellington/
Amazon AWS IAD - 11200 Thomasson,virginia,38.743967,-77.529206,,,https://aws.amazon.com/compliance/data-center/data-centers/?utm_source=datacentermap.com,https://www.datacentermap.com/usa/virginia/manassas/amazon-aws-iad-11200-thomasson/
Iron Mountain Data Centers Manassas,virginia,38.78350457490253,-77.5361467890129,,,https://chirisatechnologyparks.com/?utm_source=datacentermap.com,https://www.datacentermap.com/usa/virginia/manassas/iron-mountain-data-centers-manassas/
Amazon AWS IAD - 7610 Mason,virginia,38.790484,-77.541109,,,https://aws.amazon.com/compliance/data-center/data-centers/?utm_source=datacentermap.com,https://www.datacentermap.com/usa/virginia/manassas/amazon-aws-iad-7610-mason/
Microsoft - MNZ01,virginia,38.798514,-77.534999,,,https://datacenters.microsoft.com/?utm_source=datacentermap.com,https://www.datacentermap.com/usa/virginia/manassas/microsoft-mnz01/
Amazon AWS IAD - 9020 Freedom,virginia,38.761072,-77.518164,,,https://aws.amazon.com/compliance/data-center/data-centers/?utm_source=datacentermap.com,https://www.datacentermap.com/usa/virginia/manassas/amazon-aws-iad-9020-freedom/
Amazon AWS IAD - 7600 Doane,virginia,38.792151,-77.548433,,,https://aws.amazon.com/compliance/data-center/data-centers/?utm_source=datacentermap.com,https://www.datacentermap.com/usa/virginia/manassas/amazon-aws-iad-7600-doane/
Amazon AWS IAD - 11801 Brewers,virginia,38.789875,-77.54822,,,https://aws.amazon.com/compliance/data-center/data-centers/?utm_source=datacentermap.com,https://www.datacentermap.com/usa/virginia/manassas/amazon-aws-iad-11801-brewers/
Amazon AWS IAD - 8210 Bethlehem,virginia,38.779304,-77.542889,,,https://aws.amazon.com/compliance/data-center/data-centers/?utm_source=datacentermap.com,https://www.datacentermap.com/usa/virginia/manassas/amazon-aws-iad-8210-bethlehem/
Amazon AWS IAD - 11150 Thomasson,virginia,38.743961,-77.530548,,,https://aws.amazon.com/compliance/data-center/data-centers/?utm_source=datacentermap.com,https://www.datacentermap.com/usa/virginia/manassas/amazon-aws-iad-11150-thomasson/
Amazon AWS IAD - 7060 Wellington,virginia,38.777947,-77.559096,,,https://aws.amazon.com/compliance/data-center/data-centers/?utm_source=datacentermap.com,https://www.datacentermap.com/usa/virginia/manassas/amazon-aws-iad-7060-wellington/
Amazon AWS IAD - 14237 Dumfries,virginia,38.6454885,-77.4421533,,,https://aws.amazon.com/es/compliance/data-center/?utm_source=datacentermap.com,https://www.datacentermap.com/usa/virginia/manassas/amazon-aws-iad-14237-dumfries/
Amazon AWS IAD - 9720 Innovation,virginia,38.747078,-77.518501,,,https://aws.amazon.com/compliance/data-center/data-centers/?utm_source=datacentermap.com,https://www.datacentermap.com/usa/virginia/manassas/amazon-aws-iad-9720-innovation/
Amazon AWS - 6894-6922 Wellington Rd,virginia,38.7829027,-77.5600434,,,https://blackchambergroup.com/?utm_source=datacentermap.com,https://www.datacentermap.com/usa/virginia/manassas/6895-wellington-road/
Amazon AWS IAD - 7510 Mason,virginia,38.790484,-77.541109,,,https://aws.amazon.com/compliance/data-center/data-centers/?utm_source=datacentermap.com,https://www.datacentermap.com/usa/virginia/manassas/amazon-aws-iad-7510-mason/
Amazon AWS IAD - Thomasson Campus,virginia,38.743911,-77.529946,,,https://aws.amazon.com/compliance/data-center/data-centers/?utm_source=datacentermap.com,https://www.datacentermap.com/usa/virginia/manassas/amazon-aws-iad-thomasson-campus/
Amazon AWS IAD - 9040 Freedom,virginia,38.760356,-77.519209,,,https://aws.amazon.com/compliance/data-center/data-centers/?utm_source=datacentermap.com,https://www.datacentermap.com/usa/virginia/manassas/amazon-aws-iad-9040-freedom/
Verizon Manassas,virginia,38.8048857,-77.5123619,,,https://www.verizon.com/business/?utm_source=datacentermap.com,https://www.datacentermap.com/usa/virginia/manassas/verizon-manassas/
Amazon AWS IAD - 8200 Bethlehem,virginia,38.779387,-77.5416,,,https://aws.amazon.com/compliance/data-center/data-centers/?utm_source=datacentermap.com,https://www.datacentermap.com/usa/virginia/manassas/amazon-aws-iad-8200-bethlehem/
PRP - 7816 Bethlehem,virginia,38.78434133645856,-77.53715392224507,,,https://prprei.com/?utm_source=datacentermap.com,https://www.datacentermap.com/usa/virginia/manassas/prp-7816-bethlehem/
QTS Manassas DC6,virginia,38.75014241785635,-77.51301378771683,,,https://www.qtsdatacenters.com/?utm_source=datacentermap.com,https://www.datacentermap.com/usa/virginia/manassas/qts-manassas-dc6/
QTS Manassas DC3,virginia,38.75311780158218,-77.51089320633147,,,https://www.qtsdatacenters.com/?utm_source=datacentermap.com,https://www.datacentermap.com/usa/virginia/manassas/qts-manassas-dc3/
QTS Manassas DC4,virginia,38.75265883627064,-77.51646634539554,,,https://www.qtsdatacenters.com/?utm_source=datacentermap.com,https://www.datacentermap.com/usa/virginia/manassas/qts-manassas-dc4/
Iron Mountain Data Centers VA-4,virginia,38.77444314240671,-77.54228797734945,,,https://www.ironmountain.com/data-centers/locations/virginia-data-center?utm_source=datacentermap.com,https://www.datacentermap.com/usa/virginia/manassas/iron-mountain-va-4/
Iron Mountain Data Centers VA-5,virginia,38.77300445334242,-77.54122582266207,,,https://www.ironmountain.com/data-centers/locations/virginia-data-center?utm_source=datacentermap.com,https://www.datacentermap.com/usa/virginia/manassas/iron-mountain-va-5/
Amazon AWS IAD - Wellington Glen Tech Park,virginia,38.76834220107523,-77.54396368674271,,,https://aws.amazon.com/compliance/data-center/data-centers/?utm_source=datacentermap.com,https://www.datacentermap.com/usa/virginia/manassas/aws-iad-wellington-glen-tech-park/
CloudHQ MDC3,virginia,38.7324459,-77.5104987,84,,https://cloudhq.com/?utm_source=datacentermap.com,https://www.datacentermap.com/usa/virginia/manassas/cloudhq-mdc3/
Amazon AWS IAD - Wellington Campus (Manassas),virginia,38.77882,-77.557732,,,https://aws.amazon.com/compliance/data-center/data-centers/?utm_source=datacentermap.com,https://www.datacentermap.com/usa/virginia/manassas/amazon-aws-iad-wellington-campus/
CloudHQ MDC1,virginia,38.7307377,-77.5079467,84,,https://cloudhq.com/?utm_source=datacentermap.com,https://www.datacentermap.com/usa/virginia/manassas/cloudhq-mdc1/
CloudHQ MDC2,virginia,38.7318257,-77.5092771,84,,https://cloudhq.com/?utm_source=datacentermap.com,https://www.datacentermap.com/usa/virginia/manassas/cloudhq-mdc2/
Iron Mountain Data Centers VA-8,virginia,38.77126997797848,-77.54201997375532,,,https://www.ironmountain.com/data-centers/locations/virginia-data-center?utm_source=datacentermap.com,https://www.datacentermap.com/usa/virginia/manassas/iron-mountain-data-centers-va-8/
Iron Mountain VIrginia Campus,virginia,38.77686737087214,-77.54284595000682,,,https://www.ironmountain.com/data-centers/locations/virginia-data-center?utm_source=datacentermap.com,https://www.datacentermap.com/usa/virginia/manassas/iron-mountain-virginia-campus/
Amazon AWS IAD - 8501 Vulcan Lane,virginia,38.77006009999999,-77.5136619,,,https://aws.amazon.com/compliance/data-center/data-centers/?utm_source=datacentermap.com,https://www.datacentermap.com/usa/virginia/manassas/amazon-aws-iad-8501-vulcan-lane/
Amazon AWS IAD - 7151 Century Park Dr,virginia,38.79835481804113,-77.54183201534673,,,https://aws.amazon.com/compliance/data-center/data-centers/?utm_source=datacentermap.com,https://www.datacentermap.com/usa/virginia/manassas/amazon-aws-iad-7151-century-park-dr/
Amazon AWS IAD - 8401 Vulcan Lane,virginia,38.7673391,-77.5256966,,,https://aws.amazon.com/compliance/data-center/data-centers/?utm_source=datacentermap.com,https://www.datacentermap.com/usa/virginia/manassas/amazon-aws-iad-8401-vulcan-lane/
Amazon AWS IAD - 11901 Sudley Manor Dr B,virginia,38.76776759495681,-77.54394678768165,,,https://aws.amazon.com/compliance/data-center/data-centers/?utm_source=datacentermap.com,https://www.datacentermap.com/usa/virginia/manassas/amazon-aws-iad-11901-sudley-manor-dr-b/
STACK Infrastructure NVA05D,virginia,38.76479024154248,-77.5174746196178,,,https://www.stackinfra.com/locations/americas/portland/por03/?utm_source=datacentermap.com,https://www.datacentermap.com/usa/virginia/manassas/stack-infrastructure-nva05d/
Amazon AWS IAD - 7350 Century Park Dr,virginia,38.797091,-77.5416259,,,https://aws.amazon.com/compliance/data-center/data-centers/?utm_source=datacentermap.com,https://www.datacentermap.com/usa/virginia/manassas/amazon-aws-iad-7350-century-park-dr/
Amazon AWS IAD - 11901 Sudley Manor Dr A,virginia,38.76937232259343,-77.5435690204344,,,https://aws.amazon.com/compliance/data-center/data-centers/?utm_source=datacentermap.com,https://www.datacentermap.com/usa/virginia/manassas/amazon-aws-iad-11901-sudley-manor-dr-a/
STACK Infrastructure NVA05C,virginia,38.7608383896757,-77.51224389103382,,,https://www.stackinfra.com/locations/americas/portland/por03/?utm_source=datacentermap.com,https://www.datacentermap.com/usa/virginia/manassas/stack-infrastructure-nva05c/
Amazon AWS IAD - 10261 Tanner,virginia,38.737,-77.504082,,,https://aws.amazon.com/compliance/data-center/data-centers/?utm_source=datacentermap.com,https://www.datacentermap.com/usa/virginia/manassas/amazon-aws-iad-10281-tanner1/
Amazon AWS IAD - 10281 Tanner,virginia,38.735968,-77.50489,,,https://aws.amazon.com/compliance/data-center/data-centers/?utm_source=datacentermap.com,https://www.datacentermap.com/usa/virginia/manassas/amazon-aws-iad-10281-tanner/
Digital Dulles Campus,virginia,38.95945,-77.4885,,,,https://www.datacentermap.com/usa/virginia/dulles/digital-dulles-campus/
Old Ox Road,virginia,38.95945,-77.4885,,,,https://www.datacentermap.com/usa/virginia/dulles/old-ox-road/
43704 Efficiency (IAD44),virginia,38.96116390842681,-77.49159623257039,,,,https://www.datacentermap.com/usa/virginia/dulles/43704-efficiency-iad44/
Yondr Loundoun County Campus,virginia,38.9491595589422,-77.5499270995697,336,,https://www.yondrgroup.com/locations/?utm_source=datacentermap.com,https://www.datacentermap.com/usa/virginia/dulles/yondr-loundoun-county-campus/
Yondr Loundoun County DC1,virginia,38.9501009,-77.54978899999999,48,,https://www.yondrgroup.com/?utm_source=datacentermap.com,https://www.datacentermap.com/usa/virginia/dulles/yondr-loundoun-county-dc1/
Amazon AWS IAD - Fadeley & Woodside Campus,virginia,38.948433,-77.52136,,,https://aws.amazon.com/compliance/data-center/data-centers/?utm_source=datacentermap.com,https://www.datacentermap.com/usa/virginia/dulles/aws-iad-fadeley-woodside-campus/
Amazon AWS IAD - Kipper Campus,virginia,38.995817,-77.435925,,,https://aws.amazon.com/compliance/data-center/data-centers/?utm_source=datacentermap.com,https://www.datacentermap.com/usa/virginia/dulles/amazon-aws-iad-kipper-campus/
Yondr Loundoun County DC2,virginia,38.94862875797401,-77.5502904867314,48,,https://www.yondrgroup.com/locations/?utm_source=datacentermap.com,https://www.datacentermap.com/usa/virginia/dulles/yondr-loundoun-county-dc2/
Amazon AWS IAD - 22420 Kipper,virginia,38.995047,-77.435287,,,https://aws.amazon.com/compliance/data-center/data-centers/?utm_source=datacentermap.com,https://www.datacentermap.com/usa/virginia/dulles/amazon-aws-iad-22420-kipper/
Amazon AWS IAD - 22370 Kipper,virginia,38.996839,-77.435703,,,https://aws.amazon.com/compliance/data-center/data-centers/?utm_source=datacentermap.com,https://www.datacentermap.com/usa/virginia/dulles/amazon-aws-iad-22370-kipper/
22262 Cloud Plz,virginia,39.0005746,-77.4397659,46,,https://sentineldatacenters.com/?utm_source=datacentermap.com,https://www.datacentermap.com/usa/virginia/dulles/22262-cloud-plz/
Amazon AWS IAD - 24234 Quail,virginia,38.94808,-77.559119,,,https://aws.amazon.com/compliance/data-center/data-centers/?utm_source=datacentermap.com,https://www.datacentermap.com/usa/virginia/dulles/amazon-aws-iad-24234-quail/
Amazon AWS IAD - 24224 Quail,virginia,38.948042,-77.560416,,,https://aws.amazon.com/compliance/data-center/data-centers/?utm_source=datacentermap.com,https://www.datacentermap.com/usa/virginia/dulles/amazon-aws-iad-24224-quail/
Amazon AWS IAD - 24178 Upper Woodside,virginia,38.948337,-77.522029,,,https://aws.amazon.com/compliance/data-center/data-centers/?utm_source=datacentermap.com,https://www.datacentermap.com/usa/virginia/dulles/aws-iad-24178-upper-woodside/
Amazon AWS IAD - Light Speed Plz Campus,virginia,38.97997221438741,-77.49448672599559,,,https://aws.amazon.com/compliance/data-center/data-centers/?utm_source=datacentermap.com,https://www.datacentermap.com/usa/virginia/dulles/aws-iad-light-speed-plz-campus/
Amazon AWS IAD - 42090 Reeds Farm Ln,virginia,38.94400038508837,-77.54995173821985,,,https://aws.amazon.com/es/compliance/data-center/controls/?utm_source=datacentermap.com,https://www.datacentermap.com/usa/virginia/dulles/amazon-aws-iad-42090-reeds-farm-ln/
Amazon AWS IAD - 24214 Quail,virginia,38.949725,-77.55887,,,https://aws.amazon.com/compliance/data-center/data-centers/?utm_source=datacentermap.com,https://www.datacentermap.com/usa/virginia/dulles/amazon-aws-iad-24214-quail/
Amazon AWS IAD - 43975 Light Speed Plz,virginia,38.9811136,-77.4942032,,,https://aws.amazon.com/compliance/data-center/data-centers/?utm_source=datacentermap.com,https://www.datacentermap.com/usa/virginia/dulles/aws-iad-43649-light-speed-plz-a/
Amazon AWS IAD - 43649 Light Speed Plz,virginia,38.9794626,-77.4932681,,,https://aws.amazon.com/compliance/data-center/data-centers/?utm_source=datacentermap.com,https://www.datacentermap.com/usa/virginia/dulles/aws-iad-43649-light-speed-plz-b/
Amazon AWS IAD - 22890 Platform,virginia,38.982388,-77.416795,,,https://aws.amazon.com/compliance/data-center/data-centers/?utm_source=datacentermap.com,https://www.datacentermap.com/usa/virginia/dulles/amazon-aws-iad-22890-platform/
Amazon AWS IAD - 43855 Light Speed Plz,virginia,38.9806313,-77.495694,,,https://aws.amazon.com/compliance/data-center/data-centers/?utm_source=datacentermap.com,https://www.datacentermap.com/usa/virginia/dulles/aws-iad-43855-light-speed-plz-c/
Amazon AWS IAD - 43765 Light Speed Plz,virginia,38.9789608,-77.4947328,,,https://aws.amazon.com/compliance/data-center/data-centers/?utm_source=datacentermap.com,https://www.datacentermap.com/usa/virginia/dulles/aws-iad-43765-light-speed-plz-d/
Amazon AWS IAD - 22940 Platform,virginia,38.981531,-77.419376,,,https://aws.amazon.com/compliance/data-center/data-centers/?utm_source=datacentermap.com,https://www.datacentermap.com/usa/virginia/dulles/amazon-aws-iad-22940-platform/
Amazon AWS IAD - Quail Campus,virginia,38.94897,-77.559564,,,https://aws.amazon.com/compliance/data-center/data-centers/?utm_source=datacentermap.com,https://www.datacentermap.com/usa/virginia/dulles/amazon-aws-iad-quail-campus/
Amazon AWS IAD - 45775 Old Ox,virginia,38.979124,-77.420001,,,https://aws.amazon.com/compliance/data-center/data-centers/?utm_source=datacentermap.com,https://www.datacentermap.com/usa/virginia/dulles/amazon-aws-iad-45775-old-ox/
Amazon AWS IAD - Platform & Old Ox Campus,virginia,38.980921,-77.418049,,,https://aws.amazon.com/compliance/data-center/data-centers/?utm_source=datacentermap.com,https://www.datacentermap.com/usa/virginia/dulles/aws-iad-platform-old-ox-campus/
Amazon AWS IAD - 42948 Fadeley,virginia,38.94858,-77.520883,,,https://aws.amazon.com/compliance/data-center/data-centers/?utm_source=datacentermap.com,https://www.datacentermap.com/usa/virginia/dulles/amazon-aws-iad-42948-fadeley/
Amazon AWS IAD - 45795 Old Ox,virginia,38.97956966803642,-77.41756320820016,,,https://aws.amazon.com/compliance/data-center/data-centers/?utm_source=datacentermap.com,https://www.datacentermap.com/usa/virginia/dulles/amazon-aws-iad-45795-old-ox/
Amazon AWS IAD - 42949 Fadeley,virginia,38.949261,-77.519786,,,https://aws.amazon.com/compliance/data-center/data-centers/?utm_source=datacentermap.com,https://www.datacentermap.com/usa/virginia/dulles/amazon-aws-iad-42949-fadeley/
Amazon AWS IAD - 24244 Quail,virginia,38.949941,-77.5604,,,https://aws.amazon.com/compliance/data-center/data-centers/?utm_source=datacentermap.com,https://www.datacentermap.com/usa/virginia/dulles/amazon-aws-iad-24244-quail/
Amazon AWS IAD - 42800 Fadeley,virginia,38.946564,-77.522189,,,https://aws.amazon.com/compliance/data-center/data-centers/?utm_source=datacentermap.com,https://www.datacentermap.com/usa/virginia/dulles/amazon-aws-iad-42800-fadeley/
Amazon AWS IAD - 22900 Platform,virginia,38.981433,-77.417378,,,https://aws.amazon.com/compliance/data-center/data-centers/?utm_source=datacentermap.com,https://www.datacentermap.com/usa/virginia/dulles/amazon-aws-iad-22900-platform/
Amazon AWS IAD - 41992 John Mosby,virginia,38.94234942715915,-77.5505353525019,,,https://aws.amazon.com/compliance/data-center/data-centers/?utm_source=datacentermap.com,https://www.datacentermap.com/usa/virginia/dulles/amazon-aws-iad-41992-john-mosby/
Amazon AWS IAD - 24185 Upper Woodside,virginia,38.947908,-77.523077,,,https://aws.amazon.com/compliance/data-center/data-centers/?utm_source=datacentermap.com,https://www.datacentermap.com/usa/virginia/dulles/aws-iad-24185-upper-woodside/
Amazon AWS IAD - 43764 Light Speed Plz,virginia,38.9778469,-77.49385509999999,,,https://aws.amazon.com/compliance/data-center/data-centers/?utm_source=datacentermap.com,https://www.datacentermap.com/usa/virginia/dulles/amazon-aws-iad-43764-light-speed-plz/
PowerHouse Arcola Campus,virginia,38.9441303,-77.5357,165,,https://www.powerhousedata.com/data-center/powerhouse-arcola?utm_source=datacentermap.com,https://www.datacentermap.com/usa/virginia/dulles/powerhouse-arcola/
PowerHouse Arcola - Building A,virginia,38.943328535711,-77.53654062933256,,,https://www.powerhousedata.com/data-center/powerhouse-irving?utm_source=datacentermap.com,https://www.datacentermap.com/usa/virginia/dulles/powerhouse-arcola-building-a/
PowerHouse Arcola - Building B,virginia,38.94408632072958,-77.53514802637979,,,https://www.powerhousedata.com/data-center/powerhouse-irving?utm_source=datacentermap.com,https://www.datacentermap.com/usa/virginia/dulles/powerhouse-arcola-building-b/
43830 Devin Shafron Drive (IAD24),virginia,39.004182,-77.484108,6.8,,,https://www.datacentermap.com/usa/virginia/ashburn/43830-devin-shafron-dr/
44521 Hastings Drive (ACC5),virginia,39.0201312,-77.4632058,36.4,,,https://www.datacentermap.com/usa/virginia/ashburn/44521-hastings-drive/
44461 Chilum Place (ACC6),virginia,39.0211326,-77.4635643,26,,,https://www.datacentermap.com/usa/virginia/ashburn/44461-chilum-place/
44100 Digital Loudoun Plaza (IAD38),virginia,39.0010894,-77.4772202,16.9,,,https://www.datacentermap.com/usa/virginia/ashburn/44100-digital-loudoun-plaza/
44480 Hastings Drive (ACC4),virginia,39.0178075,-77.4624887,36.4,,,https://www.datacentermap.com/usa/virginia/ashburn/44480-hastings-drive/
43881 Devin Shafron Drive (IAD12),virginia,39.0019437,-77.4834425,9,,,https://www.datacentermap.com/usa/virginia/ashburn/43915-devin-shafron-drive/
44060 Digital Loudoun Plaza (IAD37),virginia,38.9999799,-77.4780558,19.8,,,https://www.datacentermap.com/usa/virginia/ashburn/43940-digital-loudoun-plaza/
21625 Gresham Drive (ACC7),virginia,39.0175221,-77.4656757,41.6,,,https://www.datacentermap.com/usa/virginia/ashburn/21625-gresham-drive/
44520 Hastings (ACC3),virginia,39.01994080297338,-77.45985046059216,13.9,,,https://www.datacentermap.com/usa/virginia/ashburn/44520-hastings-acc3/
43940 Digital Loudoun Plaza (IAD35),virginia,39.0005693,-77.4805131,26.4,,,https://www.datacentermap.com/usa/virginia/ashburn/43881-devin-shafron-drive/
43780 Digital Loudoun Plaza (IAD36),virginia,39.0015144,-77.479326,16.8,,,https://www.datacentermap.com/usa/virginia/ashburn/43780-digital-loudoun-bldg-h/
"44274 Round Table Plaza, Bldg L (IAD39)",virginia,39.0077105,-77.4676609,96.3,,,https://www.datacentermap.com/usa/virginia/ashburn/44274-round-table-plaza-bldg-l/
44540 Round Table Plaza (IAD73),virginia,39.0065396,-77.4664235,16,,,https://www.datacentermap.com/usa/virginia/ashburn/44540-round-table-plaza-iad73/
43791 Devin Shafron Drive (IAD14),virginia,39.003285,-77.487214,6.9,,,https://www.datacentermap.com/usa/virginia/ashburn/43791-devin-shafron-drive/
44490 Chillum (ACC2),virginia,39.02159832022906,-77.45927247433787,10.4,,,https://www.datacentermap.com/usa/virginia/ashburn/44490-chillum-acc2/
Cologix ASH1-S,virginia,39.01928455207471,-77.45761367327036,120,,,https://www.datacentermap.com/usa/virginia/ashburn/cologix-ash1-s/
21745 Sir Timothy (ACC9),virginia,39.0154045145503,-77.46719335083544,28.8,,,https://www.datacentermap.com/usa/virginia/ashburn/21745-sir-timothy-acc9/
43831 Devin Shafron (IAD13),virginia,39.00267079094796,-77.48537452075928,,,,https://www.datacentermap.com/usa/virginia/ashburn/43831-devin-shafron-iad13/
21744 Sir Timothy (ACC10),virginia,39.01269813269297,-77.46556022349331,27,,,https://www.datacentermap.com/usa/virginia/ashburn/21744-sir-timothy-acc10/
"44372 Round Table Plaza, Bldg M (IAD40)",virginia,39.0064492,-77.4670489,24,,,https://www.datacentermap.com/usa/virginia/ashburn/44372-round-table-plaza-bldg-m/
"22124 Broderick Drive, Bldg R (IAD42)",virginia,39.005589,-77.449503,48,,,https://www.datacentermap.com/usa/virginia/ashburn/22124-broderick-drive-r/
44470 Chilum Place (IAD18),virginia,39.0219138,-77.46021429999999,,,,https://www.datacentermap.com/usa/virginia/ashburn/44470-chilum-place-iad18/
21362 Smith Switch (ACC8),virginia,39.02404371446382,-77.46204425516646,,,,https://www.datacentermap.com/usa/virginia/ashburn/21362-smith-switch-acc8/
"44751 Round Table Plaza, Bldg P (IAD41)",virginia,39.008276,-77.458637,,,,https://www.datacentermap.com/usa/virginia/ashburn/44751-round-table-plaza-p/
GDC - Ashburn VA1 Data Center,virginia,39.022193,-77.455587,12.6,,https://services.global.ntt/en-us/services-and-products/global-data-centers/global-locations/americas/ashburn-va-1-data-center?utm_source=datacentermap.com,https://www.datacentermap.com/usa/virginia/ashburn/ragingwire-ashburn/
43915 Devin Shafron (IAD15),virginia,39.0026909,-77.48192,,,,https://www.datacentermap.com/usa/virginia/ashburn/44060-digital-loudoun-plaza/
GDC - Ashburn VA2 Data Center,virginia,39.0249532,-77.4575832,14,,https://datacenter.hello.global.ntt/en/location/ashburn/ashburn-va2-data-center?utm_source=datacentermap.com,https://www.datacentermap.com/usa/virginia/ashburn/ntt-ashburn-va2/
GDC - Ashburn VA3 Data Center,virginia,39.0172073,-77.4704572,16,,https://datacenter.hello.global.ntt/en/location/ashburn/ashburn-va3-data-center?utm_source=datacentermap.com,https://www.datacentermap.com/usa/virginia/ashburn/ntt-ashburn-va3/
GDC - Ashburn VA4 Data Center,virginia,39.0198639,-77.47269,32,,https://services.global.ntt/en-us/services-and-products/global-data-centers/global-locations/americas/ashburn-va-4-data-center?utm_source=datacentermap.com,https://www.datacentermap.com/usa/virginia/ashburn/ntt-ashburn-va4/
GDC - Ashburn VA5 Data Center,virginia,39.0183108,-77.4727637,32,,https://services.global.ntt/en-us/services-and-products/global-data-centers/global-locations/americas/ashburn-va-5-data-center?utm_source=datacentermap.com,https://www.datacentermap.com/usa/virginia/ashburn/ntt-ashburn-va5/
Serverfarm Vienna DC2,virginia,38.9083838,-77.2197444,15,,https://elementcritical.com/data-centers/northern-virginia/?utm_source=datacentermap.com,https://www.datacentermap.com/usa/virginia/ashburn/element-critical-va1/
Csquare Ashburn Campus,virginia,39.021941,-77.453284,10,,https://www.evoquedcs.com/data-centers/ashburn?utm_source=datacentermap.com,https://www.datacentermap.com/usa/virginia/ashburn/ashburn-wdc1/
Equinix DC21,virginia,39.01186,-77.45448,,,https://www.equinix.com/?utm_source=datacentermap.com,https://www.datacentermap.com/usa/virginia/ashburn/equinix-dc21/
Equinix DC11,virginia,39.0152031,-77.4594652,,,https://www.equinix.com/?utm_source=datacentermap.com,https://www.datacentermap.com/usa/virginia/ashburn/equinix-dc11/
Csquare - Ashburn IAD4-A,virginia,39.022182,-77.453577,1.5,,https://www.business.att.com/products/colocation.html?utm_source=datacentermap.com,https://www.datacentermap.com/usa/virginia/ashburn/att-21571-beaumeade/
Equinix DC2,virginia,39.016494,-77.4592617,,,https://www.equinix.com/?utm_source=datacentermap.com,https://www.datacentermap.com/usa/virginia/ashburn/equinix-ashburn2/
Equinix DC1,virginia,39.0155544,-77.4603448,,,https://www.equinix.com/?utm_source=datacentermap.com,https://www.datacentermap.com/usa/virginia/ashburn/equinix-ashburn1/
SDC Ashburn - Building A,virginia,39.01539827769066,-77.4782544161659,,,https://sabeydatacenters.com/data-center-locations/ashburn-data-center/?utm_source=datacentermap.com,https://www.datacentermap.com/usa/virginia/ashburn/intergateashburn/
Csquare - Ashburn IAD4-B,virginia,39.021799,-77.452678,1.5,,https://www.business.att.com/products/colocation.html?utm_source=datacentermap.com,https://www.datacentermap.com/usa/virginia/ashburn/att-21561-beaumeade/
Equinix DC12,virginia,39.0229665,-77.4497901,,,https://www.equinix.com/?utm_source=datacentermap.com,https://www.datacentermap.com/usa/virginia/ashburn/equinix-dc12/
DataBank IAD1 - Ashburn,virginia,39.015513,-77.4817247,9.9,,https://www.databank.com/?utm_source=datacentermap.com,https://www.datacentermap.com/usa/virginia/ashburn/latisys-ashburn/
H5 Data Centers Ashburn,virginia,39.013682,-77.451713,60,,https://h5datacenters.com/ashburn-data-center.html?utm_source=datacentermap.com,https://www.datacentermap.com/usa/virginia/ashburn/h5dc-ashburn/
Equinix DC10,virginia,39.020867,-77.4513023,,,https://www.equinix.com/?utm_source=datacentermap.com,https://www.datacentermap.com/usa/virginia/ashburn/equinix-dc10/
SDC Ashburn Campus,virginia,39.01445767840778,-77.4778646753925,85,1.35,https://sabeydatacenters.com/locations/ashburn-data-center?utm_source=datacentermap.com,https://www.datacentermap.com/usa/virginia/ashburn/sdc-ashburn-campus/
Summit Ashburn,virginia,39.0041487,-77.4843702,,,https://www.summithq.com/data-centers/ashburn-virginia-data-center/?utm_source=datacentermap.com,https://www.datacentermap.com/usa/virginia/ashburn/deft-iad1-ashburn/
Equinix DC4,virginia,39.0164848,-77.4619615,,,https://www.equinix.com/?utm_source=datacentermap.com,https://www.datacentermap.com/usa/virginia/ashburn/equinix-ashburn4/
Equinix DC3,virginia,39.0221038,-77.460696,,,https://www.equinix.com/?utm_source=datacentermap.com,https://www.datacentermap.com/usa/virginia/ashburn/equinix-ashburn3/
QTS Ashburn 3 DC1,virginia,38.99808959996076,-77.47561987108294,42,,https://www.qtsdatacenters.com/?utm_source=datacentermap.com,https://www.datacentermap.com/usa/virginia/ashburn/qts-ash3-dc1/
Equinix DC13,virginia,39.01258,-77.475265,,,https://www.equinix.com/?utm_source=datacentermap.com,https://www.datacentermap.com/usa/virginia/ashburn/equinix-dc13/
Equinix DC15,virginia,39.02293170869478,-77.44977402446722,,,https://www.equinix.com/?utm_source=datacentermap.com,https://www.datacentermap.com/usa/virginia/ashburn/equinix-dc15/
Equinix DC5,virginia,39.015216,-77.457658,,,https://www.equinix.com/?utm_source=datacentermap.com,https://www.datacentermap.com/usa/virginia/ashburn/equinix-dc5/
Equinix DC6,virginia,39.0152031,-77.4594652,,,https://www.equinix.com/?utm_source=datacentermap.com,https://www.datacentermap.com/usa/virginia/ashburn/equinix-dc6/
Aligned IAD-02,virginia,39.010247,-77.4749719,120,,https://aligneddc.com/ashburn/?utm_source=datacentermap.com,https://www.datacentermap.com/usa/virginia/ashburn/aligned-iad-02/
EdgeCore Ashburn AS01,virginia,39.0218016,-77.4146767,72,1.25,https://edgecore.com/?utm_source=datacentermap.com,https://www.datacentermap.com/usa/virginia/ashburn/edgecore-ashburn-as01/
Equinix DC16,virginia,39.02427666581032,-77.45240855773166,,,https://www.equinix.com/data-centers/americas-colocation/united-states-colocation/washington-dc-data-centers/dc16?utm_source=datacentermap.com,https://www.datacentermap.com/usa/virginia/ashburn/equinix-dc16/
Rackspace Ashburn,virginia,39.0211431,-77.46355179999999,,,https://www.rackspace.com/about/data-centers/ashburn?utm_source=datacentermap.com,https://www.datacentermap.com/usa/virginia/ashburn/rackspace/
QTS Ashburn 3 DC2,virginia,38.99862818684682,-77.47428413099419,42,,https://www.qtsdatacenters.com/?utm_source=datacentermap.com,https://www.datacentermap.com/usa/virginia/ashburn/qts-ash3-dc2/
DataBank IAD3 - Ashburn Campus,virginia,39.01783,-77.48177,40,,https://www.databank.com/data-centers/northern-virginia/ashburn-campus/iad3/?utm_source=datacentermap.com,https://www.datacentermap.com/usa/virginia/ashburn/databank-iad3/
Aligned IAD-01,virginia,39.013328,-77.47145200000001,60,,https://aligneddc.com/ashburn/?utm_source=datacentermap.com,https://www.datacentermap.com/usa/virginia/ashburn/aligned-iad-01/
SDC Ashburn - Building C,virginia,39.0139352,-77.4767866,,,https://sabeydatacenters.com/?utm_source=datacentermap.com,https://www.datacentermap.com/usa/virginia/ashburn/intergate-ashburn/
GDC - Ashburn VA7 Data Center,virginia,39.0157487,-77.4717019,36,,https://services.global.ntt/en-us/services-and-products/global-data-centers/global-locations/americas/ashburn-va7-data-center?utm_source=datacentermap.com,https://www.datacentermap.com/usa/virginia/ashburn/ntt-ashburn-va7/
SDC Ashburn - Building B,virginia,39.01450756214319,-77.47988976675335,,,https://sabeydatacenters.com/locations/ashburn-data-center?utm_source=datacentermap.com,https://www.datacentermap.com/usa/virginia/ashburn/sdc-ashburn-b/
CloudHQ LC Campus,virginia,39.00989991162159,-77.46325166095652,1256,,https://cloudhq.com/?utm_source=datacentermap.com,https://www.datacentermap.com/usa/virginia/ashburn/cloudhq-lc-campus/
GDC - Ashburn VA8 Data Center,virginia,39.018737,-77.4759974,20.4,,https://services.global.ntt/en-us/services-and-products/global-data-centers/global-locations/americas/ashburn-data-centers?utm_source=datacentermap.com,https://www.datacentermap.com/usa/virginia/ashburn/ntt-ashburn-va8/
DataBank IAD4 - Ashburn,virginia,39.0158838,-77.4831897,20,,https://www.databank.com/data-centers/northern-virginia/ashburn-campus/iad4/?utm_source=datacentermap.com,https://www.datacentermap.com/usa/virginia/ashburn/databank-iad4-ashburn/
GDC - Ashburn VA6 Data Center,virginia,39.0169872,-77.4734051,24,,https://services.global.ntt/en-us/services-and-products/global-data-centers/global-locations/americas/ashburn-data-centers?utm_source=datacentermap.com,https://www.datacentermap.com/usa/virginia/ashburn/ntt-ashburn-va6/
Quantum Connect,virginia,39.0113413,-77.4712498,20,,https://www.powerhousedata.com/?utm_source=datacentermap.com,https://www.datacentermap.com/usa/virginia/ashburn/quantum-connect/
CyrusOne NVA14,virginia,39.01963454166167,-77.45053166694414,60,,https://www.powerhousedata.com/data-center/powerhouse-abx-1?utm_source=datacentermap.com,https://www.datacentermap.com/usa/virginia/ashburn/powerhouse-abx1/
Remington Technology Park,virginia,38.540508,-77.789075,425,,https://pointonecorp.com/remington-technology-park?utm_source=datacentermap.com,https://www.datacentermap.com/usa/virginia/ashburn/remington-technology-park/
CloudHQ LC8,virginia,39.002512,-77.468513,108,,https://cloudhq.com/?utm_source=datacentermap.com,https://www.datacentermap.com/usa/virginia/ashburn/cloudhq-lc8/
Google Loudoun County Campus,virginia,39.04946628823595,-77.5384608095923,,,https://www.google.com/about/datacenters/locations/loudoun-county/?utm_source=datacentermap.com,https://www.datacentermap.com/usa/virginia/ashburn/google-loudoun-county-campus/
CloudHQ LC10,virginia,39.004371,-77.472825,108,,https://cloudhq.com/?utm_source=datacentermap.com,https://www.datacentermap.com/usa/virginia/ashburn/cloudhq-lc10/
Microsoft Compass Creek Campus,virginia,39.07516416519945,-77.56357256583598,180,,https://datacenters.microsoft.com/?utm_source=datacentermap.com,https://www.datacentermap.com/usa/virginia/ashburn/microsoft-compass-creek-campus/
STACK Infrastructure NVA06A,virginia,39.0811496914989,-77.565116117741,72,,https://www.stackinfra.com/locations/americas/northern-virginia/nva06/?utm_source=datacentermap.com,https://www.datacentermap.com/usa/virginia/ashburn/stack-infrastructure-nva06/
CloudHQ LC11,virginia,39.006718,-77.478126,108,,https://cloudhq.com/?utm_source=datacentermap.com,https://www.datacentermap.com/usa/virginia/ashburn/cloudhq-lc11/
CloudHQ LC13,virginia,39.005048,-77.476645,108,,https://cloudhq.com/?utm_source=datacentermap.com,https://www.datacentermap.com/usa/virginia/ashburn/cloudhq-lc13/
CloudHQ LC3,virginia,39.0111472,-77.4605028,80,,https://cloudhq.com/?utm_source=datacentermap.com,https://www.datacentermap.com/usa/virginia/ashburn/cloudhq-lc3/
CloudHQ LC4,virginia,39.002908,-77.472159,180,,https://cloudhq.com/?utm_source=datacentermap.com,https://www.datacentermap.com/usa/virginia/ashburn/cloudhq-lc4/
Microsoft - 41730 Inclusion Ln,virginia,39.0696069,-77.5607682,,,https://datacenters.microsoft.com/?utm_source=datacentermap.com,https://www.datacentermap.com/usa/virginia/ashburn/microsoft-41730-inclusion-ln/
CloudHQ LC1,virginia,39.0101648,-77.4628056,144,,https://cloudhq.com/?utm_source=datacentermap.com,https://www.datacentermap.com/usa/virginia/ashburn/cloudhq-lc1/
NTT Ashburn Campus,virginia,39.01910496631204,-77.47366667057929,,,https://services.global.ntt/en-us/services-and-products/global-data-centers?utm_source=datacentermap.com,https://www.datacentermap.com/usa/virginia/ashburn/ntt-ashburn-campus/
CloudHQ LC12,virginia,39.00565,-77.478954,108,,https://cloudhq.com/?utm_source=datacentermap.com,https://www.datacentermap.com/usa/virginia/ashburn/cloudhq-lc12/
CloudHQ LC9,virginia,39.003981,-77.470626,108,,https://cloudhq.com/?utm_source=datacentermap.com,https://www.datacentermap.com/usa/virginia/ashburn/cloudhq-lc9/
CloudHQ LC14,virginia,39.006188,-77.475617,108,,https://cloudhq.com/?utm_source=datacentermap.com,https://www.datacentermap.com/usa/virginia/ashburn/cloudhq-lc14/
CloudHQ LC2,virginia,39.0117174,-77.4624862,96,,https://cloudhq.com/?utm_source=datacentermap.com,https://www.datacentermap.com/usa/virginia/ashburn/cloudhq-lc2/
Amazon AWS IAD - Import Campus,virginia,38.99613490157937,-77.47213440153939,,,https://aws.amazon.com/es/compliance/data-center/?utm_source=datacentermap.com,https://www.datacentermap.com/usa/virginia/ashburn/amazon-aws-iad-import-campus/
Microsoft - 41720 Inclusion Ln,virginia,39.069618,-77.55943719999999,,,https://datacenters.microsoft.com/?utm_source=datacentermap.com,https://www.datacentermap.com/usa/virginia/ashburn/microsoft-41720-inclusion-ln/
Compass Loudoun County I - Campus,virginia,39.0427647,-77.5394072,,,https://www.compassdatacenters.com/es/mercados/america-del-norte/virginia-del-norte/?utm_source=datacentermap.com,https://www.datacentermap.com/usa/virginia/ashburn/compass-loudoun-county-i/
Dulles 28 Technology Park,virginia,39.00922061569657,-77.44271815586289,,,https://blackchambergroup.com/?utm_source=datacentermap.com,https://www.datacentermap.com/usa/virginia/ashburn/dulles-28-technology-park/
Amazon AWS IAD - Loudoun County Campus,virginia,39.036013,-77.450214,,,https://aws.amazon.com/compliance/data-center/data-centers/?utm_source=datacentermap.com,https://www.datacentermap.com/usa/virginia/ashburn/aws-iad-loudoun-county-campus/
Equinix DC22,virginia,39.01377210793382,-77.45376597765666,,,https://www.equinix.com/data-centers/americas-colocation/united-states-colocation/washington-dc-data-centers?utm_source=datacentermap.com,https://www.datacentermap.com/usa/virginia/ashburn/equinix-dc22/
CloudHQ MCC1,virginia,38.717023,-77.4999271,,,http://www.cloudhq.com?utm_source=datacentermap.com,https://www.datacentermap.com/usa/virginia/ashburn/mcc1/
Google Loudoun County Data Center 1,virginia,39.0526208,-77.5395419,,1.08,https://www.google.com/about/datacenters/locations/loudoun-county/?utm_source=datacentermap.com,https://www.datacentermap.com/usa/virginia/ashburn/google-loudoun-county/
Equinix DC17,virginia,39.0249174,-77.4534089,,,https://www.equinix.com/data-centers/americas-colocation/united-states-colocation/silicon-valley-data-centers?utm_source=datacentermap.com,https://www.datacentermap.com/usa/virginia/ashburn/equinix-dc17/
Vantage VA3 - Ashburn III Campus,virginia,39.07763607854258,-77.50485300885215,288,,https://vantage-dc.com/data-center-locations/north-america/ashburn-iii-virginia/?utm_source=datacentermap.com,https://www.datacentermap.com/usa/virginia/ashburn/vantage-va3-ashburn-iii-campus/
43790 Devin Shafron Dr,virginia,39.0050545,-77.4856124,,,https://www.menloequities.com/properties/43790-devin-shafron-dr-ashburn-virginia/?utm_source=datacentermap.com,https://www.datacentermap.com/usa/virginia/ashburn/43790-devin-shafron-dr/
STACK Infrastructure Loudoun County Campus,virginia,38.95954855034142,-77.52843742136668,144,,https://www.stackinfra.com/locations/americas/northern-virginia/loudoun-county/?utm_source=datacentermap.com,https://www.datacentermap.com/usa/virginia/ashburn/stack-infrastructure-loudoun-county/
STACK Infrastructure NVA01A,virginia,39.004711,-77.4417784,17,,https://www.stackinfra.com/locations/americas/northern-virginia/nva01/?utm_source=datacentermap.com,https://www.datacentermap.com/usa/virginia/ashburn/ashburn2/
Greenlin Park,virginia,39.05642332816744,-77.56393025258568,300,,https://www.jklandholdings.net/?utm_source=datacentermap.com,https://www.datacentermap.com/usa/virginia/ashburn/greenlin-park/
Cross Mill Center,virginia,39.06355599649159,-77.54968172359906,,,https://www.jklandholdings.net/?utm_source=datacentermap.com,https://www.datacentermap.com/usa/virginia/ashburn/cross-mill-center/
Amazon AWS IAD - 20935 Loudoun,virginia,39.036269,-77.449797,,,https://aws.amazon.com/compliance/data-center/data-centers/?utm_source=datacentermap.com,https://www.datacentermap.com/usa/virginia/ashburn/amazon-aws-iad-20935-loudoun/
42277 Cochran Mill Rd,virginia,39.0747062,-77.51927069999999,,,https://sdccapitalpartners.com/?utm_source=datacentermap.com,https://www.datacentermap.com/usa/virginia/ashburn/42277-cochran-mill-rd/
Amazon AWS IAD - 44854 Interconnection,virginia,39.02703070482402,-77.45280787413792,,,https://aws.amazon.com/compliance/data-center/data-centers/?utm_source=datacentermap.com,https://www.datacentermap.com/usa/virginia/ashburn/aws-iad-44854-interconnection/
Google Loudoun County Data Center 2,virginia,39.05056751515701,-77.53998965572775,,,https://www.google.com/about/datacenters/locations/loudoun-county/?utm_source=datacentermap.com,https://www.datacentermap.com/usa/virginia/ashburn/google-loudoun-county2/
Microsoft - 19515 Compass Creek,virginia,39.0747746,-77.5641169,,,https://datacenters.microsoft.com/?utm_source=datacentermap.com,https://www.datacentermap.com/usa/virginia/ashburn/microsoft-19515-compass-creek/
NTT Ashburn VA9,virginia,39.02030041155722,-77.47521852914588,,,https://services.global.ntt/en-us/services-and-products/global-data-centers?utm_source=datacentermap.com,https://www.datacentermap.com/usa/virginia/ashburn/ntt-ashburn-va9/
Amazon AWS IAD - Smith Campus,virginia,39.029116,-77.457607,,,https://aws.amazon.com/compliance/data-center/data-centers/?utm_source=datacentermap.com,https://www.datacentermap.com/usa/virginia/ashburn/amazon-aws-iad-smith-campus/
Microsoft - 19525 Compass Creek,virginia,39.075422,-77.5629972,,,https://datacenters.microsoft.com/?utm_source=datacentermap.com,https://www.datacentermap.com/usa/virginia/ashburn/microsoft-19525-compass-creek/
Amazon AWS IAD - 21320 Beaumeade Cir,virginia,39.01671948593827,-77.45203757714678,,,https://aws.amazon.com/es/compliance/data-center/controls/?utm_source=datacentermap.com,https://www.datacentermap.com/usa/virginia/ashburn/amazon-aws-iad-21320-beaumeade-cir/
Amazon IAD - 44305 Import,virginia,38.995896,-77.471221,,,https://aws.amazon.com/es/compliance/data-center/?utm_source=datacentermap.com,https://www.datacentermap.com/usa/virginia/ashburn/amazon-iad-44305-import/
Amazon AWS - George Washington Blvd,virginia,39.0580722,-77.4434909,,,https://aws.amazon.com/es/trust-center/data-center/?utm_source=datacentermap.com,https://www.datacentermap.com/usa/virginia/ashburn/amazon-aws-george-washington-blvd/
LightEdge - Ashburn,virginia,39.0152031,-77.4594652,,,https://lightedge.com/data-centers/ashburn-data-center/?utm_source=datacentermap.com,https://www.datacentermap.com/usa/virginia/ashburn/lightedge-ashburn/
Compass Loudoun County I - E,virginia,39.044178,-77.538132,,,https://www.compassdatacenters.com/markets/north-america/northern-virginia/?utm_source=datacentermap.com,https://www.datacentermap.com/usa/virginia/ashburn/compass-loudoun-county-i-e/
Amazon AWS IAD - 44858 Interconnection,virginia,39.02662230407137,-77.4510268874296,,,https://aws.amazon.com/compliance/data-center/data-centers/?utm_source=datacentermap.com,https://www.datacentermap.com/usa/virginia/ashburn/aws-iad-44858-interconnection/
Amazon AWS IAD - 21271 Smith,virginia,39.029578,-77.459637,,,https://aws.amazon.com/compliance/data-center/data-centers/?utm_source=datacentermap.com,https://www.datacentermap.com/usa/virginia/ashburn/amazon-aws-iad-21271-smith/
CloudHQ LC5,virginia,39.009534,-77.477243,,,https://cloudhq.com/?utm_source=datacentermap.com,https://www.datacentermap.com/usa/virginia/ashburn/cloudhq-lc5/
Lumen Ashburn,virginia,39.02217380441355,-77.4575642871464,,,https://www.lumen.com/es-es/edge-cloud/data-centers.html?utm_source=datacentermap.com,https://www.datacentermap.com/usa/virginia/ashburn/lumen-ashburn/
Microsoft - 41700 Inclusion Ln (IAD4),virginia,39.06691550000001,-77.5585543,,,https://datacenters.microsoft.com/?utm_source=datacentermap.com,https://www.datacentermap.com/usa/virginia/ashburn/microsoft-41700-inclusion-ln/
Amazon AWS IAD - 21263 Smith,virginia,39.02786,-77.457416,,,https://aws.amazon.com/compliance/data-center/data-centers/?utm_source=datacentermap.com,https://www.datacentermap.com/usa/virginia/ashburn/amazon-aws-iad-21263-smith/
Amazon AWS IAD - 21310-21320 Beaumeade Cir,virginia,39.01632065732971,-77.45257626805177,,,https://aws.amazon.com/es/compliance/data-center/controls/?utm_source=datacentermap.com,https://www.datacentermap.com/usa/virginia/ashburn/aws-iad-21310-21320-beaumeade-cir/
Amazon AWS IAD - 20945 Loudoun,virginia,39.035477,-77.450721,,,https://aws.amazon.com/compliance/data-center/data-centers/?utm_source=datacentermap.com,https://www.datacentermap.com/usa/virginia/ashburn/amazon-aws-iad-20945-loudoun/
Amazon IAD - 44351 Import,virginia,38.995102,-77.471046,,,https://aws.amazon.com/es/compliance/data-center/?utm_source=datacentermap.com,https://www.datacentermap.com/usa/virginia/ashburn/amazon-iad-44351-import/
Amazon AWS IAD - 44862 Interconnection,virginia,39.02648061346299,-77.44956776578906,,,https://aws.amazon.com/compliance/data-center/data-centers/?utm_source=datacentermap.com,https://www.datacentermap.com/usa/virginia/ashburn/aws-iad-44862-interconnection/
Compass Loudoun County I - B,virginia,39.043312,-77.540611,,,https://www.compassdatacenters.com/markets/north-america/northern-virginia/?utm_source=datacentermap.com,https://www.datacentermap.com/usa/virginia/ashburn/compass-loudoun-county-i-b/
Tech Park at Brambleton,virginia,38.95645674249057,-77.53512112011552,,,https://blackchambergroup.com/?utm_source=datacentermap.com,https://www.datacentermap.com/usa/virginia/ashburn/tech-park-at-brambleton/
Compass Loudoun County I - D,virginia,39.042456,-77.538416,,,https://www.compassdatacenters.com/markets/north-america/northern-virginia/?utm_source=datacentermap.com,https://www.datacentermap.com/usa/virginia/ashburn/compass-loudoun-county-i-d/
Microsoft - 41700 Inclusion Ln (IAD6),virginia,39.064862,-77.558003,,,https://datacenters.microsoft.com/?utm_source=datacentermap.com,https://www.datacentermap.com/usa/virginia/ashburn/microsoft-41700-inclusion-ln-bldg-2/
Windstream Ashburn,virginia,39.0149741,-77.47405119999999,,,https://www.windstreamwholesale.com/solutions/?utm_source=datacentermap.com,https://www.datacentermap.com/usa/virginia/ashburn/windstream-ashburn/
Amazon AWS IAD - Interconnection Campus,virginia,39.02659947976149,-77.45141847598957,,,https://aws.amazon.com/compliance/data-center/data-centers/?utm_source=datacentermap.com,https://www.datacentermap.com/usa/virginia/ashburn/aws-iad-interconnection-campus/
QTS Ashburn 3 Campus,virginia,38.99847653870452,-77.47490640348629,80,,https://www.qtsdatacenters.com/?utm_source=datacentermap.com,https://www.datacentermap.com/usa/virginia/ashburn/qts-ashburn-shellhorn-campus/
Amazon AWS - 41789 Cochran Mill Rd,virginia,39.06835466867474,-77.52811589181938,,,https://aws.amazon.com/es/compliance/data-center/controls/?utm_source=datacentermap.com,https://www.datacentermap.com/usa/virginia/ashburn/amazon-aws-41789-cochran-mill-rd/
Amazon IAD - 44254 Import,virginia,38.996532,-77.473185,,,https://aws.amazon.com/es/compliance/data-center/?utm_source=datacentermap.com,https://www.datacentermap.com/usa/virginia/ashburn/amazon-iad-44254-import/
Compass Loudoun County I - C,virginia,39.041708,-77.539347,,,https://www.compassdatacenters.com/markets/north-america/northern-virginia/?utm_source=datacentermap.com,https://www.datacentermap.com/usa/virginia/ashburn/compass-loudoun-county-i-c/
Compass Loudoun County I - A,virginia,39.043644,-77.539284,,,https://www.compassdatacenters.com/markets/north-america/northern-virginia/?utm_source=datacentermap.com,https://www.datacentermap.com/usa/virginia/ashburn/compass-loudoun-county-i-a/
STACK Infrastructure NVA06B,virginia,39.07945616706608,-77.56441375874996,,,https://www.stackinfra.com/locations/americas/northern-virginia/nva06/?utm_source=datacentermap.com,https://www.datacentermap.com/usa/virginia/ashburn/stack-infrastructure-nva06b/
Amazon AWS IAD - 21267 Smith,virginia,39.028702,-77.458316,,,https://aws.amazon.com/compliance/data-center/data-centers/?utm_source=datacentermap.com,https://www.datacentermap.com/usa/virginia/ashburn/amazon-aws-iad-21267-smith/
Amazon AWS IAD - 21310 Beaumeade Cir,virginia,39.01583,-77.45324099999999,,,https://aws.amazon.com/es/compliance/data-center/controls/?utm_source=datacentermap.com,https://www.datacentermap.com/usa/virginia/ashburn/amazon-aws-iad-21310-beaumeade-cir/
Visa Ashburn,virginia,39.0487466,-77.4454221,,,https://usa.visa.com/?utm_source=datacentermap.com,https://www.datacentermap.com/usa/virginia/ashburn/visa-ashburn/
STACK Infrastructure Loudoun County - Building 2,virginia,38.95971733663299,-77.52555493348244,72,,https://www.stackinfra.com/locations/americas/northern-virginia/loudoun-county/?utm_source=datacentermap.com,https://www.datacentermap.com/usa/virginia/ashburn/stack-loudoun-county-building-2/
STACK Infrastructure Loudoun County - Building 1,virginia,38.95990121688683,-77.53103547209835,72,,https://www.stackinfra.com/locations/americas/northern-virginia/loudoun-county/?utm_source=datacentermap.com,https://www.datacentermap.com/usa/virginia/ashburn/stack-loudoun-county-building-1/
19886 Ashburn Rd,virginia,39.0665229,-77.47890249999999,,,https://www.jklandholdings.net/?utm_source=datacentermap.com,https://www.datacentermap.com/usa/virginia/ashburn/19886-ashburn-rd/
Tuscarora Crossing Campus,virginia,39.07826722402647,-77.53426945902078,,,https://blackchambergroup.com/?utm_source=datacentermap.com,https://www.datacentermap.com/usa/virginia/ashburn/tuscarora-crossing-campus/
CyrusOne NVA - Broadlands Campus,virginia,39.03273471179797,-77.52197662533504,,,https://www.cyrusone.com/?utm_source=datacentermap.com,https://www.datacentermap.com/usa/virginia/ashburn/cyrusone-broadlands-campus/
20335 Celtic Park Drive (Campus),virginia,39.05611006832117,-77.54579963553444,,,https://www.tarealty.com/?utm_source=datacentermap.com,https://www.datacentermap.com/usa/virginia/ashburn/20335-celtic-park-drive/
Tuscarora Crossing Bldg 3,virginia,39.077082,-77.535422,,,https://blackchambergroup.com/?utm_source=datacentermap.com,https://www.datacentermap.com/usa/virginia/ashburn/tuscarora-crossing-bldg-3/
CyrusOne NVA - Broadlands Building 3,virginia,39.03367667990798,-77.52297706639736,,,https://www.cyrusone.com/?utm_source=datacentermap.com,https://www.datacentermap.com/usa/virginia/ashburn/cyrusone-broadlands-building-3/
CyrusOne NVA - Broadlands Building 1,virginia,39.03143359769798,-77.5239547701628,,,https://www.cyrusone.com/?utm_source=datacentermap.com,https://www.datacentermap.com/usa/virginia/ashburn/cyrusone-broadlands-building-1/
CyrusOne NVA - Broadlands Building 4,virginia,39.03234614629483,-77.52130966462684,,,https://www.cyrusone.com/?utm_source=datacentermap.com,https://www.datacentermap.com/usa/virginia/ashburn/cyrusone-broadlands-building-4/
Tuscarora Crossing Bldg 1,virginia,39.077793,-77.532388,,,https://blackchambergroup.com/?utm_source=datacentermap.com,https://www.datacentermap.com/usa/virginia/ashburn/tuscarora-crossing-bldg-1/
Tuscarora Crossing Bldg 2,virginia,39.077531,-77.533613,,,https://blackchambergroup.com/?utm_source=datacentermap.com,https://www.datacentermap.com/usa/virginia/ashburn/tuscarora-crossing-bldg-2/
CyrusOne NVA - Broadlands Building 2,virginia,39.03237558315019,-77.52358339431392,,,https://www.cyrusone.com/?utm_source=datacentermap.com,https://www.datacentermap.com/usa/virginia/ashburn/cyrusone-broadlands-building-2/
Gulick Mill Campus,virginia,39.043636,-77.558242,,,,https://www.datacentermap.com/usa/virginia/ashburn/gulick-mill-campus/
20335 Celtic Park Drive (Building 2),virginia,39.05600029502848,-77.54712331564622,,,https://www.tarealty.com/?utm_source=datacentermap.com,https://www.datacentermap.com/usa/virginia/ashburn/20335-celtic-park-drive-building-2/
Gulick Mill Campus - Building 2,virginia,39.04207,-77.558877,,,,https://www.datacentermap.com/usa/virginia/ashburn/gulick-mill-campus-building-2/
20335 Celtic Park Drive (Building 3),virginia,39.0556210768862,-77.54479723700318,,,https://www.tarealty.com/?utm_source=datacentermap.com,https://www.datacentermap.com/usa/virginia/ashburn/20335-celtic-park-drive-building-3/
Gulick Mill Campus - Building 1,virginia,39.04395,-77.560244,,,,https://www.datacentermap.com/usa/virginia/ashburn/gulick-mill-campus-building-1/
365 Data Centers - Herndon,virginia,38.9343841,-77.428724,0.83,,https://365datacenters.com/?utm_source=datacentermap.com,https://www.datacentermap.com/usa/virginia/herndon/dulles-exchange/
20335 Celtic Park Drive (Building 1),virginia,39.05758700148322,-77.54659641385416,,,https://www.tarealty.com/?utm_source=datacentermap.com,https://www.datacentermap.com/usa/virginia/ashburn/20335-celtic-park-drive-building-1/
H5 Data Centers Herndon,virginia,38.9628751,-77.3767578,,,https://h5datacenters.com/herndon-data-center.html?utm_source=datacentermap.com,https://www.datacentermap.com/usa/virginia/herndon/h5-data-centers-herndon/
Cogent Data Center - Herndon,virginia,38.962567,-77.381386,2,,https://www.cogentco.com/en/cogent-northern-virginia?utm_source=datacentermap.com,https://www.datacentermap.com/usa/virginia/herndon/cogent-herndon/
Aptum Herndon,virginia,38.9504306,-77.3971521,1,,https://aptum.com/services/colocation/herndon-data-center/?utm_source=datacentermap.com,https://www.datacentermap.com/usa/virginia/herndon/aptum-herndon/
Amazon AWS IAD - EDS Campus,virginia,38.9242746,-77.4278885,,,https://aws.amazon.com/es/compliance/data-center/?utm_source=datacentermap.com,https://www.datacentermap.com/usa/virginia/herndon/amazon-aws-iad-eds-campus/
Menlo Digital MD-DC1 (Herndon),virginia,38.9270284,-77.4242369,48,,https://menlo-digital.com/portfolio/md-dc1-herndon/?utm_source=datacentermap.com,https://www.datacentermap.com/usa/virginia/herndon/menlo-digital-md-dc1-herndon/
Amazon AWS IAD - 13600 EDS C,virginia,38.923178,-77.426237,,,https://aws.amazon.com/es/compliance/data-center/?utm_source=datacentermap.com,https://www.datacentermap.com/usa/virginia/herndon/amazon-aws-iad-13600-eds-c/
Amazon AWS IAD166 - 13600 EDS B,virginia,38.921199,-77.426674,,,https://aws.amazon.com/es/compliance/data-center/?utm_source=datacentermap.com,https://www.datacentermap.com/usa/virginia/herndon/amazon-aws-iad-13600-eds-b/
Lumen Herndon 3,virginia,38.9658597,-77.3814333,,,https://www.lumen.com/?utm_source=datacentermap.com,https://www.datacentermap.com/usa/virginia/herndon/level3-herndon3/
Amazon AWS IAD165 - 13600 EDS A,virginia,38.92235183694539,-77.42738605510408,,,https://aws.amazon.com/compliance/data-center/data-centers/?utm_source=datacentermap.com,https://www.datacentermap.com/usa/virginia/herndon/amazon-aws-iad-13600-eds/
Amazon AWS IAD501 - 13876 Redskin Drive,virginia,38.9362365,-77.4250879,,,https://aws.amazon.com/compliance/data-center/data-centers/?utm_source=datacentermap.com,https://www.datacentermap.com/usa/virginia/herndon/amazon-aws-iad-501-13876-redskin-drive/
Lumen Herdon 1,virginia,38.9660539,-77.381806,,,https://www.lumen.com/?utm_source=datacentermap.com,https://www.datacentermap.com/usa/virginia/herndon/level3-herdon1/
Amazon AWS IAD500 - 13860 Redskin Drive,virginia,38.9368233,-77.4243443,,,https://aws.amazon.com/compliance/data-center/data-centers/?utm_source=datacentermap.com,https://www.datacentermap.com/usa/virginia/herndon/amazon-aws-iad-500-13860-redskin-drive/
Lumen Herdon 2,virginia,38.956698,-77.381837,,,https://www.lumen.com/?utm_source=datacentermap.com,https://www.datacentermap.com/usa/virginia/herndon/level3-herdon2/
Amazon AWS IAD - Renaissance Park,virginia,38.93570087225842,-77.42415901457284,,,https://aws.amazon.com/compliance/data-center/data-centers/?utm_source=datacentermap.com,https://www.datacentermap.com/usa/virginia/herndon/amazon-aws-iad-renaissance-park/
Cogent Data Center - Vienna,virginia,38.9129715,-77.2272716,0.4,,https://www.cogentco.com/en/cogent-northern-virginia?utm_source=datacentermap.com,https://www.datacentermap.com/usa/virginia/vienna-virginia/cogent-vienna/
DataBank IAD2 - McLean,virginia,38.9198982,-77.213588,3,,https://www.databank.com/data-centers/northern-virginia/mclean/?utm_source=datacentermap.com,https://www.datacentermap.com/usa/virginia/vienna-virginia/databank-iad2/
8100 Boone Boulevard,virginia,38.91372014907486,-77.22591421448347,0.4,,,https://www.datacentermap.com/usa/virginia/vienna-virginia/8100-boone-boulevard/
Equinix DC7,virginia,38.9093627,-77.22044369999999,,,https://www.equinix.com/?utm_source=datacentermap.com,https://www.datacentermap.com/usa/virginia/vienna-virginia/switchdata-vienna2/
Superb DCA2 - McLean,virginia,38.921683,-77.2272009,,,https://www.superb.net/?utm_source=datacentermap.com,https://www.datacentermap.com/usa/virginia/vienna-virginia/dca2-mclean/
NetEx NDC01,virginia,38.9333586,-77.2378123,,,http://NetExInc.com?utm_source=datacentermap.com,https://www.datacentermap.com/usa/virginia/vienna-virginia/ndc01/
ATI  DC-2,virginia,38.9212181,-77.2127055,,,https://www.atisolutions.com?utm_source=datacentermap.com,https://www.datacentermap.com/usa/virginia/vienna-virginia/ati-dc1/
CherryRoad DCA2,virginia,38.9222964,-77.2273149,,,https://hopone.cherryroad.com/data-centers/dca2/?utm_source=datacentermap.com,https://www.datacentermap.com/usa/virginia/vienna-virginia/cherryroad-dca2/
Lumen McLean,virginia,38.9200209,-77.2116578,,,https://www.lumen.com/?utm_source=datacentermap.com,https://www.datacentermap.com/usa/virginia/vienna-virginia/level3-mclean1/
Serverfarm Vienna DC1,virginia,38.9089579,-77.2196502,,,https://www.serverfarmllc.com/united-states-data-centers/?utm_source=datacentermap.com,https://www.datacentermap.com/usa/virginia/vienna-virginia/serverfarm-vienna-dc1/
Serverfarm Vienna Cloud,virginia,38.90883923433751,-77.22009651856133,,,https://www.serverfarmllc.com/united-states-data-centers/?utm_source=datacentermap.com,https://www.datacentermap.com/usa/virginia/vienna-virginia/serverfarm-vienna-cloud/
22574 Pacific Blvd (IAD55),virginia,38.98968199999999,-77.43471600000001,,,,https://www.datacentermap.com/usa/virginia/sterling/digital-realty-sterling/
CyrusOne NVA9 - Sterling,virginia,38.958671,-77.5052149,135,,https://www.cyrusone.com/data-centers/north-america/sterling-virginia-nva9?utm_source=datacentermap.com,https://www.datacentermap.com/usa/virginia/sterling/cyrusone-nva9/
44820 Prentice (IAD43),virginia,39.00183006258693,-77.4524772079501,,,,https://www.datacentermap.com/usa/virginia/sterling/44820-prentice-iad43/
CyrusOne NVA8 - Sterling,virginia,39.0211136,-77.4133574,24,,https://www.cyrusone.com/data-centers/north-america/sterling-virginia-nva8?utm_source=datacentermap.com,https://www.datacentermap.com/usa/virginia/sterling/cyrusone-nva8/
CyrusOne NVA5 - Sterling,virginia,39.02422747310928,-77.43332634100067,105,,https://www.cyrusone.com/data-centers/north-america/sterling-va-nva5-nva7?utm_source=datacentermap.com,https://www.datacentermap.com/usa/virginia/sterling/cyrusone-nva5/
CyrusOne NVA7 - Sterling,virginia,39.02609425119419,-77.43404310940451,150,,https://www.cyrusone.com/data-centers/north-america/sterling-va-nva5-nva7?utm_source=datacentermap.com,https://www.datacentermap.com/usa/virginia/sterling/cyrusone-nva7/
CyrusOne Virginia Campus,virginia,39.02542071743534,-77.41394234404247,48,,https://www.cyrusone.com/?utm_source=datacentermap.com,https://www.datacentermap.com/usa/virginia/sterling/cyrusone-nva1-3-campus/
QTS Ashburn-Moran DC2,virginia,38.9942906,-77.4478098,6,,https://qtsdatacenters.com/data-centers/ashburn-moran?utm_source=datacentermap.com,https://www.datacentermap.com/usa/virginia/sterling/qts-ashburn-moran/
CyrusOne NVA4 - Sterling,virginia,38.984666,-77.425827,12.6,,https://www.cyrusone.com/data-centers/north-america/sterling-virginia-nva4?utm_source=datacentermap.com,https://www.datacentermap.com/usa/virginia/sterling/cyrusone-nva4/
Csquare - Sterling IAD1-C,virginia,39.024769,-77.412271,4.8,,https://centersquaredc.com/data-centers/northern-virginia?utm_source=datacentermap.com,https://www.datacentermap.com/usa/virginia/sterling/cyxtera-iad1c/
Csquare - Sterling IAD2-A,virginia,38.984363,-77.423605,2,,https://centersquaredc.com/data-centers/northern-virginia#sterling-iad2?utm_source=datacentermap.com,https://www.datacentermap.com/usa/virginia/sterling/cyxtera-iad2a/
Csquare - Sterling IAD1-A,virginia,39.023323,-77.413135,1.8,,https://centersquaredc.com/data-centers/northern-virginia?utm_source=datacentermap.com,https://www.datacentermap.com/usa/virginia/sterling/cyxtera-iad1a/
Csquare - Sterling IAD3-A,virginia,38.980441,-77.44415,2,,https://centersquaredc.com/data-centers/northern-virginia#sterling-iad3?utm_source=datacentermap.com,https://www.datacentermap.com/usa/virginia/sterling/cyxtera-iad3a/
CyrusOne NVA1 - Sterling,virginia,39.025792088356006,-77.41462387809602,,,https://www.cyrusone.com/data-centers/north-america/sterling-va-nva1-nva3?utm_source=datacentermap.com,https://www.datacentermap.com/usa/virginia/sterling/cyrusone-sterling/
EdgeCore Ashburn AS02,virginia,38.9947719,-77.4443082,42,1.25,https://edgecore.com/locations/ashburn/?utm_source=datacentermap.com,https://www.datacentermap.com/usa/virginia/sterling/edgecore-ashburn-as02/
Csquare - Sterling IAD2-B,virginia,38.983931,-77.424651,6,,https://centersquaredc.com/data-centers/northern-virginia#sterling-iad2?utm_source=datacentermap.com,https://www.datacentermap.com/usa/virginia/sterling/cyxtera-iad2b/
Csquare - Sterling IAD1-B,virginia,39.024059,-77.41512,4.8,,https://centersquaredc.com/data-centers/northern-virginia?utm_source=datacentermap.com,https://www.datacentermap.com/usa/virginia/sterling/cyxtera-iad1b/
QTS Ashburn 1 DC1,virginia,38.99955586121173,-77.45024935853806,55,,https://qtsdatacenters.com/data-centers/ashburn-broderick?utm_source=datacentermap.com,https://www.datacentermap.com/usa/virginia/sterling/qts-ashburn/
Vantage VA2 - Ashburn II Campus,virginia,38.9985435,-77.4284906,96,,https://vantage-dc.com/?utm_source=datacentermap.com,https://www.datacentermap.com/usa/virginia/sterling/vantage-va2-campus/
Menlo Digital MD-DC2 (Sterling),virginia,38.99953413782657,-77.44533804548144,96,,https://menlo-digital.com/portfolio/md-dc2-sterling/?utm_source=datacentermap.com,https://www.datacentermap.com/usa/virginia/sterling/menlo-digital-md-dc2-sterling/
Skybox Nova One,virginia,38.9893002,-77.4489528,30,,https://skyboxdatacenters.com/locations/skybox-nova?utm_source=datacentermap.com,https://www.datacentermap.com/usa/virginia/sterling/skybox-nova-one/
Corscale Kincora,virginia,39.0378025,-77.4335136,72,1.25,https://corscale.com/kincora/?utm_source=datacentermap.com,https://www.datacentermap.com/usa/virginia/sterling/corscale-kincora/
CyrusOne NVA2 - Sterling,virginia,39.026457880853,-77.41438759073819,,,https://www.cyrusone.com/data-centers/north-america/sterling-va-nva1-nva3?utm_source=datacentermap.com,https://www.datacentermap.com/usa/virginia/sterling/cyrusone-nva2/
Vantage VA1 - Ashburn I Campus,virginia,39.00193001787986,-77.4391140117989,206,,https://vantage-dc.com/data-center-locations/north-america/ashburn-i-virginia/?utm_source=datacentermap.com,https://www.datacentermap.com/usa/virginia/sterling/vantage-va1-campus/
CyrusOne NVA3 - Sterling,virginia,39.02513628924854,-77.4147148202385,,,https://www.cyrusone.com/data-centers/north-america/sterling-va-nva1-nva3?utm_source=datacentermap.com,https://www.datacentermap.com/usa/virginia/sterling/cyrusone-nva3/
Amazon AWS IAD - Erins Run Campus,virginia,38.95847495684595,-77.49875311214257,,,https://aws.amazon.com/compliance/data-center/data-centers/?utm_source=datacentermap.com,https://www.datacentermap.com/usa/virginia/sterling/amazon-aws-iad-erins-run-campus/
Amazon AWS - 45965-45975 Nokes Blvd,virginia,39.02234,-77.410177,,,https://aws.amazon.com/es/?utm_source=datacentermap.com,https://www.datacentermap.com/usa/virginia/sterling/amazon-aws-45965-nokes-blvd/
Google Arcola Campus,virginia,38.9434999,-77.5267438,,,https://www.google.com/about/datacenters/?utm_source=datacentermap.com,https://www.datacentermap.com/usa/virginia/sterling/google-arcola-campus/
Microsoft - 42010 Growth Mindset Ln,virginia,38.95200120025035,-77.55551976909665,,,https://datacenters.microsoft.com/?utm_source=datacentermap.com,https://www.datacentermap.com/usa/virginia/sterling/microsoft-42010-growth-mindset-ln/
Maries Tech Park,virginia,39.02376869516043,-77.41833986538849,,,https://www.copt.com/data/?utm_source=datacentermap.com,https://www.datacentermap.com/usa/virginia/sterling/maries-tech-park/
Microsoft - 41840 Growth Mindset Ln,virginia,38.9483644,-77.5558896,,,https://datacenters.microsoft.com/?utm_source=datacentermap.com,https://www.datacentermap.com/usa/virginia/sterling/microsoft-41840-growth-mindset-ln/
Amazon AWS - 46020 Manekin Plaza,virginia,39.0239514,-77.4078877,,,https://aws.amazon.com/es/?utm_source=datacentermap.com,https://www.datacentermap.com/usa/virginia/sterling/amazon-aws-46020-manekin-plaza/
Prologis Executive Dr,virginia,38.98999136053257,-77.44347528227908,,,https://www.prologis.com/?utm_source=datacentermap.com,https://www.datacentermap.com/usa/virginia/sterling/prologis-executive-dr/
Amazon AWS IAD - Atlantic Blvd Campus,virginia,39.03124564523246,-77.42834700368634,,,https://aws.amazon.com/compliance/data-center/data-centers/?utm_source=datacentermap.com,https://www.datacentermap.com/usa/virginia/sterling/aws-iad-atlantic-blvd-campus/
Amazon AWS IAD - Relocation Campus,virginia,38.986583,-77.442336,,,https://aws.amazon.com/compliance/data-center/data-centers/?utm_source=datacentermap.com,https://www.datacentermap.com/usa/virginia/sterling/amazon-aws-iad-relocation-campus/
Microsoft - 42031 Growth Mindset Ln,virginia,38.9501533,-77.5559483,,,https://datacenters.microsoft.com/?utm_source=datacentermap.com,https://www.datacentermap.com/usa/virginia/sterling/microsoft-42031-growth-mindset-ln/
PowerHouse Pacific Campus,virginia,39.004648,-77.447214,265,,https://www.powerhousedata.com/data-center/powerhouse-pacific?utm_source=datacentermap.com,https://www.datacentermap.com/usa/virginia/sterling/powerhouse-pacific/
Microsoft Growth Mindset Campus,virginia,38.95020331761594,-77.55482294789314,,,https://datacenters.microsoft.com/?utm_source=datacentermap.com,https://www.datacentermap.com/usa/virginia/sterling/microsoft-growth-mindset-campus/
Amazon AWS IAD - Charles View Campus,virginia,39.017223,-77.43816,,,https://aws.amazon.com/compliance/data-center/data-centers/?utm_source=datacentermap.com,https://www.datacentermap.com/usa/virginia/sterling/amazon-aws-iad-charles-v-campus/
Aligned IAD-03,virginia,38.98849831093195,-77.44064142545633,72,,https://aligneddc.com/es/norte-de-virginia/?utm_source=datacentermap.com,https://www.datacentermap.com/usa/virginia/sterling/aligned-iad-03/
PointOne Ashburn Data Center Campus,virginia,39.008395,-77.4325999,83,,https://pointonecorp.com/ashburn-data-center-campus?utm_source=datacentermap.com,https://www.datacentermap.com/usa/virginia/sterling/pointone-ashburn-data-center-campus/
PointOne Sterling,virginia,39.01984376350097,-77.42774404569792,,,https://www.pointonecorp.com/?utm_source=datacentermap.com,https://www.datacentermap.com/usa/virginia/sterling/pointone-sterling/
Vantage VA15,virginia,39.0007446,-77.437319,,,https://vantage-dc.com/?utm_source=datacentermap.com,https://www.datacentermap.com/usa/virginia/sterling/vantage-va15/
Amazon AWS IAD - 45110 Loudoun,virginia,38.991802,-77.441077,,,https://aws.amazon.com/compliance/data-center/data-centers/?utm_source=datacentermap.com,https://www.datacentermap.com/usa/virginia/sterling/amazon-aws-iad-45110-loudoun/
Vantage VA11,virginia,39.0023934,-77.437778,,,https://vantage-dc.com/?utm_source=datacentermap.com,https://www.datacentermap.com/usa/virginia/sterling/vantage-va11/
Amazon AWS IAD - Severn & Squire Campus,virginia,39.020857,-77.434063,,,https://aws.amazon.com/compliance/data-center/data-centers/?utm_source=datacentermap.com,https://www.datacentermap.com/usa/virginia/sterling/aws-iad-severn-squire-campus/
Amazon AWS IAD - 45220 Prologis,virginia,38.991491,-77.436564,,,https://aws.amazon.com/compliance/data-center/data-centers/?utm_source=datacentermap.com,https://www.datacentermap.com/usa/virginia/sterling/amazon-aws-iad-45220-prologis/
Amazon AWS IAD - 21205 Atlantic Blvd,virginia,39.030378,-77.429063,,,https://aws.amazon.com/compliance/data-center/data-centers/?utm_source=datacentermap.com,https://www.datacentermap.com/usa/virginia/sterling/aws-iad-21205-atlantic-blvd/
Prologis 45120 Global Plaza,virginia,38.9875796,-77.4391223,,,https://www.prologis.com/?utm_source=datacentermap.com,https://www.datacentermap.com/usa/virginia/sterling/prologis-45120-global-plaza/
Amazon AWS IAD - 22760 Pacific,virginia,38.98675918989868,-77.43526066332728,,,https://aws.amazon.com/compliance/data-center/data-centers/?utm_source=datacentermap.com,https://www.datacentermap.com/usa/virginia/sterling/amazon-aws-iad-22760-pacific/
Amazon AWS IAD - Pathfinder Campus,virginia,38.987238,-77.412518,,,https://aws.amazon.com/compliance/data-center/data-centers/?utm_source=datacentermap.com,https://www.datacentermap.com/usa/virginia/sterling/amazon-aws-iad-pathfinder-campus/
Amazon AWS IAD - 45210 Prologis,virginia,38.990742,-77.437359,,,https://aws.amazon.com/compliance/data-center/data-centers/?utm_source=datacentermap.com,https://www.datacentermap.com/usa/virginia/sterling/amazon-aws-iad-45210-prologis/
Amazon AWS IAD - 21195 Atlantic Blvd,virginia,39.032242,-77.429674,,,https://aws.amazon.com/compliance/data-center/data-centers/?utm_source=datacentermap.com,https://www.datacentermap.com/usa/virginia/sterling/aws-iad-21195-atlantic-blvd/
QTS Ashburn-Lockridge DC1,virginia,38.99584300000001,-77.455348,,,https://www.qtsdatacenters.com/?utm_source=datacentermap.com,https://www.datacentermap.com/usa/virginia/sterling/qts-ashburn-lockridge/
COPT MP-2,virginia,39.024329,-77.420441,,,https://www.copt.com/data/?utm_source=datacentermap.com,https://www.datacentermap.com/usa/virginia/sterling/copt-mp-2/
Amazon AWS IAD - 22755 Relocation,virginia,38.98698,-77.442691,,,https://aws.amazon.com/compliance/data-center/data-centers/?utm_source=datacentermap.com,https://www.datacentermap.com/usa/virginia/sterling/amazon-aws-iad-22755-relocation/
23540 Pebble Run Pl,virginia,38.967587,-77.501845,,,https://datacenters.microsoft.com/?utm_source=datacentermap.com,https://www.datacentermap.com/usa/virginia/sterling/23540-pebble-run-pl/
Google Arcola Data Center 3,virginia,38.9446661462705,-77.526807418068,,,https://www.google.com/about/datacenters/?utm_source=datacentermap.com,https://www.datacentermap.com/usa/virginia/sterling/google-arcola-data-center-3/
Amazon AWS IAD - 22520 Randolph,virginia,38.9938501993005,-77.45041434613738,,,https://aws.amazon.com/compliance/data-center/data-centers/?utm_source=datacentermap.com,https://www.datacentermap.com/usa/virginia/sterling/amazon-aws-iad-22520-randolph/
Amazon AWS IAD - 45305 Severn,virginia,39.019168,-77.434083,,,https://aws.amazon.com/compliance/data-center/data-centers/?utm_source=datacentermap.com,https://www.datacentermap.com/usa/virginia/sterling/aws-iad-45305-severn/
Windstream Sterling,virginia,39.0237529,-77.3922558,,,https://www.windstreamwholesale.com/solutions/?utm_source=datacentermap.com,https://www.datacentermap.com/usa/virginia/sterling/windstream-sterling/
Amazon AWS IAD - 23825 Erins,virginia,38.957821,-77.4981,,,https://aws.amazon.com/compliance/data-center/data-centers/?utm_source=datacentermap.com,https://www.datacentermap.com/usa/virginia/sterling/amazon-aws-iad-23825-erins/
Amazon AWS IAD - Prologis Campus,virginia,38.990953,-77.436878,,,https://aws.amazon.com/compliance/data-center/data-centers/?utm_source=datacentermap.com,https://www.datacentermap.com/usa/virginia/sterling/amazon-aws-iad-prologis-campus/
Amazon AWS IAD - 1304 Squire,virginia,39.021556,-77.434812,,,https://aws.amazon.com/compliance/data-center/data-centers/?utm_source=datacentermap.com,https://www.datacentermap.com/usa/virginia/sterling/aws-iad-1304-squire/
Amazon AWS IAD - 45111 Loudoun,virginia,38.990932,-77.441914,,,https://aws.amazon.com/compliance/data-center/data-centers/?utm_source=datacentermap.com,https://www.datacentermap.com/usa/virginia/sterling/amazon-aws-iad-45111-loudoun/
Amazon AWS IAD - 22651 Dulles,virginia,38.990663,-77.448802,,,https://aws.amazon.com/compliance/data-center/data-centers/?utm_source=datacentermap.com,https://www.datacentermap.com/usa/virginia/sterling/amazon-aws-iad-22651-dulles/
Amazon AWS IAD - Dulles Campus,virginia,38.99034,-77.447482,,,https://aws.amazon.com/compliance/data-center/data-centers/?utm_source=datacentermap.com,https://www.datacentermap.com/usa/virginia/sterling/amazon-aws-iad-dulles-campus/
COPT MP-1,virginia,39.023616,-77.419118,,,https://www.copt.com/data/?utm_source=datacentermap.com,https://www.datacentermap.com/usa/virginia/sterling/copt-mp-1/
Amazon AWS IAD - 23845 Erins,virginia,38.955875,-77.497272,,,https://aws.amazon.com/compliance/data-center/data-centers/?utm_source=datacentermap.com,https://www.datacentermap.com/usa/virginia/sterling/amazon-aws-iad-23845-erins/
Amazon AWS IAD - 22631 Dulles,virginia,38.991732,-77.448535,,,https://aws.amazon.com/compliance/data-center/data-centers/?utm_source=datacentermap.com,https://www.datacentermap.com/usa/virginia/sterling/amazon-aws-iad-22631-dulles/
Amazon AWS IAD - 22945 International,virginia,38.981697,-77.427284,,,https://aws.amazon.com/compliance/data-center/data-centers/?utm_source=datacentermap.com,https://www.datacentermap.com/usa/virginia/sterling/aws-iad-22945-international/
Amazon AWS IAD - Loudoun Downs Campus,virginia,38.991418,-77.441584,,,https://aws.amazon.com/compliance/data-center/data-centers/?utm_source=datacentermap.com,https://www.datacentermap.com/usa/virginia/sterling/aws-iad-loudoun-downs-campus/
Vantage VA13,virginia,39.0030244,-77.4403628,,,https://vantage-dc.com/?utm_source=datacentermap.com,https://www.datacentermap.com/usa/virginia/sterling/vantage-va13/
Vantage VA12,virginia,39.0018501,-77.4380712,,,https://vantage-dc.com/?utm_source=datacentermap.com,https://www.datacentermap.com/usa/virginia/sterling/vantage-va12/
Amazon AWS IAD - 22868 International,virginia,38.982535,-77.424631,,,https://aws.amazon.com/compliance/data-center/data-centers/?utm_source=datacentermap.com,https://www.datacentermap.com/usa/virginia/sterling/aws-iad-22868-international/
Google Arcola Data Center 1,virginia,38.94300921473193,-77.52443625926428,,,https://www.google.com/about/datacenters/?utm_source=datacentermap.com,https://www.datacentermap.com/usa/virginia/sterling/google-arcola-data-center-1/
Amazon AWS IAD - 21710 Charles View,virginia,39.016121,-77.438347,,,https://aws.amazon.com/compliance/data-center/data-centers/?utm_source=datacentermap.com,https://www.datacentermap.com/usa/virginia/sterling/amazon-aws-iad-21710-charles-view/
Amazon AWS IAD - 45360 Severn,virginia,39.021685,-77.432992,,,https://aws.amazon.com/compliance/data-center/data-centers/?utm_source=datacentermap.com,https://www.datacentermap.com/usa/virginia/sterling/aws-iad-45360-severn/
Amazon AWS IAD - 21645 Charles View,virginia,39.016953,-77.439301,,,https://aws.amazon.com/compliance/data-center/data-centers/?utm_source=datacentermap.com,https://www.datacentermap.com/usa/virginia/sterling/amazon-aws-iad-21645-charles-view/
Amazon AWS IAD - 45950 Pathfinder,virginia,38.986955,-77.410408,,,https://aws.amazon.com/compliance/data-center/data-centers/?utm_source=datacentermap.com,https://www.datacentermap.com/usa/virginia/sterling/amazon-aws-iad-45950-pathfinder/
Amazon AWS IAD - 23005 International,virginia,38.979938,-77.425482,,,https://aws.amazon.com/compliance/data-center/data-centers/?utm_source=datacentermap.com,https://www.datacentermap.com/usa/virginia/sterling/aws-iad-23005-international/
Amazon AWS IAD - 21660 Charles View,virginia,39.015273,-77.437838,,,https://aws.amazon.com/compliance/data-center/data-centers/?utm_source=datacentermap.com,https://www.datacentermap.com/usa/virginia/sterling/amazon-aws-iad-21660-charles-view/
Amazon AWS IAD - 21641 Charles View,virginia,39.018534,-77.438795,,,https://aws.amazon.com/compliance/data-center/data-centers/?utm_source=datacentermap.com,https://www.datacentermap.com/usa/virginia/sterling/amazon-aws-iad-21641-charles-view/
Vantage VA21,virginia,38.99711513995007,-77.42934773514203,,,https://vantage-dc.com/?utm_source=datacentermap.com,https://www.datacentermap.com/usa/virginia/sterling/vantage-va21/
Amazon AWS IAD - 45900 Pathfinder,virginia,38.987804,-77.411203,,,https://aws.amazon.com/compliance/data-center/data-centers/?utm_source=datacentermap.com,https://www.datacentermap.com/usa/virginia/sterling/amazon-aws-iad-45900-pathfinder/
Amazon AWS IAD - 45930 Pathfinder,virginia,38.988568,-77.411758,,,https://aws.amazon.com/compliance/data-center/data-centers/?utm_source=datacentermap.com,https://www.datacentermap.com/usa/virginia/sterling/amazon-aws-iad-45930-pathfinder/
Amazon AWS IAD - 22745 Relocation,virginia,38.986235,-77.441876,,,https://aws.amazon.com/compliance/data-center/data-centers/?utm_source=datacentermap.com,https://www.datacentermap.com/usa/virginia/sterling/amazon-aws-iad-22745-relocation/
Vantage VA22,virginia,38.99751479842982,-77.4301326351421,,,https://vantage-dc.com/?utm_source=datacentermap.com,https://www.datacentermap.com/usa/virginia/sterling/vantage-va22/
Amazon AWS IAD - 23835 Erins,virginia,38.956789,-77.497617,,,https://aws.amazon.com/compliance/data-center/data-centers/?utm_source=datacentermap.com,https://www.datacentermap.com/usa/virginia/sterling/amazon-aws-iad-23835-erins/
COPT MP-3,virginia,39.02299554523893,-77.4174020929728,,,https://www.copt.com/data/?utm_source=datacentermap.com,https://www.datacentermap.com/usa/virginia/sterling/copt-mp-3/
Vantage VA14,virginia,39.0028702,-77.4394651,,,https://vantage-dc.com/?utm_source=datacentermap.com,https://www.datacentermap.com/usa/virginia/sterling/vantage-va14/
Google Arcola Data Center 2,virginia,38.941872939158,-77.52700331457262,,,https://www.google.com/about/datacenters/?utm_source=datacentermap.com,https://www.datacentermap.com/usa/virginia/sterling/google-arcola-data-center-2/
Amazon AWS IAD - 22630 Dulles,virginia,38.988717,-77.447563,,,https://aws.amazon.com/compliance/data-center/data-centers/?utm_source=datacentermap.com,https://www.datacentermap.com/usa/virginia/sterling/amazon-aws-iad-22630-dulles/
Amazon AWS IAD - 21215 Atlantic Blvd,virginia,39.028966,-77.427459,,,https://aws.amazon.com/compliance/data-center/data-centers/?utm_source=datacentermap.com,https://www.datacentermap.com/usa/virginia/sterling/aws-iad-21215-atlantic-blvd/
Vantage VA23,virginia,38.998289568526765,-77.43047997594672,,,https://vantage-dc.com/?utm_source=datacentermap.com,https://www.datacentermap.com/usa/virginia/sterling/vantage-va23/
Amazon AWS IAD - International Campus,virginia,38.981932,-77.425799,,,https://aws.amazon.com/compliance/data-center/data-centers/?utm_source=datacentermap.com,https://www.datacentermap.com/usa/virginia/sterling/aws-iad-international-campus/
Amazon AWS IAD - 45259 Severn,virginia,39.020218,-77.433926,,,https://aws.amazon.com/compliance/data-center/data-centers/?utm_source=datacentermap.com,https://www.datacentermap.com/usa/virginia/sterling/aws-iad-45259-severn/
PowerHouse Pacific - Building B,virginia,39.003503,-77.448679,84,,https://www.powerhousedata.com/data-center/powerhouse-pacific?utm_source=datacentermap.com,https://www.datacentermap.com/usa/virginia/sterling/powerhouse-pacific-building-b/
PowerHouse Pacific - Building C,virginia,39.003456,-77.446858,48,,https://www.powerhousedata.com/data-center/powerhouse-pacific?utm_source=datacentermap.com,https://www.datacentermap.com/usa/virginia/sterling/powerhouse-pacific-building-c/
Prologis Global Plaza Campus,virginia,38.98583003862311,-77.43926979388137,,,https://www.prologis.com/?utm_source=datacentermap.com,https://www.datacentermap.com/usa/virginia/sterling/prologis-global-plaza/
PowerHouse Pacific - Building A,virginia,39.005127,-77.446432,90,,https://www.powerhousedata.com/data-center/powerhouse-pacific?utm_source=datacentermap.com,https://www.datacentermap.com/usa/virginia/sterling/powerhouse-pacific-building-a/
Amazon AWS - 21660 Ridgetop Circle,virginia,39.02543614702813,-77.40963884006521,,,https://aws.amazon.com/es/?utm_source=datacentermap.com,https://www.datacentermap.com/usa/virginia/sterling/amazon-aws-21660-ridgetop-circle/
STACK Infrastructure NVA04 Campus,virginia,39.000502,-77.460084,,,https://www.stackinfra.com/locations/americas/northern-virginia/nva04/?utm_source=datacentermap.com,https://www.datacentermap.com/usa/virginia/sterling/stack-infrastructure-nva04-campus/
Amazon AWS - 21670-21680 Ridgetop Circle,virginia,39.0242467,-77.4103906,,,https://aws.amazon.com/es/?utm_source=datacentermap.com,https://www.datacentermap.com/usa/virginia/sterling/amazon-aws-21670-ridgetop-circle/
Prologis 42121 Global Plaza,virginia,38.98612549144949,-77.43982195314287,,,https://www.prologis.com/?utm_source=datacentermap.com,https://www.datacentermap.com/usa/virginia/sterling/prologis-42121-global-plaza/
Prologis 45181 Global Plaza,virginia,38.9855667,-77.4387727,,,https://www.prologis.com/?utm_source=datacentermap.com,https://www.datacentermap.com/usa/virginia/sterling/prologis-45181-global-plaza/
QTS Ashburn-Lockridge DC2,virginia,38.9958219,-77.456152,,,https://www.qtsdatacenters.com/data-centers/ashburn-2?utm_source=datacentermap.com,https://www.datacentermap.com/usa/virginia/sterling/qts-ashburn-2/
STACK Infrastructure NVA04A,virginia,38.999113,-77.461189,,,https://www.stackinfra.com/locations/americas/northern-virginia/nva04/?utm_source=datacentermap.com,https://www.datacentermap.com/usa/virginia/sterling/stack-infrastructure-nva04a/
STACK Infrastructure NVA04C,virginia,39.000951,-77.461382,,,https://www.stackinfra.com/locations/americas/northern-virginia/nva04/?utm_source=datacentermap.com,https://www.datacentermap.com/usa/virginia/sterling/stack-infrastructure-nva04c/
STACK Infrastructure NVA04B,virginia,39.000245,-77.461323,,,https://www.stackinfra.com/locations/americas/northern-virginia/nva04/?utm_source=datacentermap.com,https://www.datacentermap.com/usa/virginia/sterling/stack-infrastructure-nva04b/
EdgeConneX Richmond - EDCRIC01,virginia,37.638915,-77.467703,0.5,,https://www.edgeconnex.com/locations/americas/richmond-va/?utm_source=datacentermap.com,https://www.datacentermap.com/usa/virginia/richmond/edgeconnex-edcric01/
DP Facilities - Mineral Gap Data Center,virginia,36.97797550039026,-82.5267990919378,45,1.2,https://www.dpfacilities.com/markets/wise-va/?utm_source=datacentermap.com,https://www.datacentermap.com/usa/virginia/wise/mineral-gap-data-center/
Flexential Richmond Data Center - $0 NRC's,virginia,37.645191,-77.441777,2.8,,,https://www.datacentermap.com/usa/virginia/richmond/flexential-richmond/
QTS Richmond 1 Campus,virginia,37.4862323,-77.2474922,238,,https://q.com/data-centers/richmond-1/?utm_source=datacentermap.com,https://www.datacentermap.com/usa/virginia/richmond/qts-richmond/
Iron Mountain Data Centers RCH-1,virginia,37.49822459822843,-77.23531098508444,48,,https://www.ironmountain.com/data-centers/locations/richmond-data-center?utm_source=datacentermap.com,https://www.datacentermap.com/usa/virginia/richmond/iron-mountain-rch-1/
Microsoft Hillcrest Campus,virginia,36.7419674,-78.103385,48,,https://datacenters.microsoft.com/?utm_source=datacentermap.com,https://www.datacentermap.com/usa/virginia/richmond/microsoft-hillcrest/
Pixel Factory Data Center,virginia,37.6986413,-77.4364363,,,https://www.pixelfactorydatacenter.com?utm_source=datacentermap.com,https://www.datacentermap.com/usa/virginia/richmond/pixel-factory-data-center/
TECfusions Clarksville,virginia,36.6008629,-78.549977,220,,https://tecfusions.com/?kensington&utm_source=datacentermap.com,https://www.datacentermap.com/usa/virginia/richmond/tecfusions-clarksville/
DC BLOX Richmond,virginia,37.6054538,-77.42214520000002,10,,https://www.dcblox.com/?utm_source=datacentermap.com,https://www.datacentermap.com/usa/virginia/richmond/dc-blox-richmond/
Chirisa Digital Drive DC2,virginia,37.355032,-77.333934,100,,https://chirisa.com/?utm_source=datacentermap.com,https://www.datacentermap.com/usa/virginia/richmond/chirisa-digital-drive-dc2/
Chirisa Digital Drive DC1,virginia,37.356661,-77.333235,100,,https://chirisa.com/?utm_source=datacentermap.com,https://www.datacentermap.com/usa/virginia/richmond/chirisa-digital-drive-dc1/
Richweb Data Center,virginia,37.6119888,-77.3392405,,,https://richweb.com/?utm_source=datacentermap.com,https://www.datacentermap.com/usa/virginia/richmond/gweb-data-center/
Cogent Data Center - Richmond,virginia,37.5421273,-77.4237017,,,https://www.cogentco.com/en/cogent-northern-virginia?utm_source=datacentermap.com,https://www.datacentermap.com/usa/virginia/richmond/cogent-data-center-richmond/
Hanover Technology Park,virginia,37.79022620363778,-77.43150076074146,2400,,https://www.tract.com/?utm_source=datacentermap.com,https://www.datacentermap.com/usa/virginia/richmond/hanover-technology-park/
Chirisa Richmond Technology Park,virginia,37.36007352786623,-77.32721792017082,350,,https://chirisatechnologyparks.com/locations/richmond-va/?utm_source=datacentermap.com,https://www.datacentermap.com/usa/virginia/richmond/chirisa-technology-park-richmond/
Microsoft Ridge Road Campus,virginia,36.69320698279525,-78.36368240483205,,,https://datacenters.microsoft.com/?utm_source=datacentermap.com,https://www.datacentermap.com/usa/virginia/richmond/microsoft-ridge-road-campus/
Microsoft Prison Road Campus,virginia,36.65922370065306,-78.36403611594886,,,https://datacenters.microsoft.com/?utm_source=datacentermap.com,https://www.datacentermap.com/usa/virginia/richmond/microsoft-prison-road-campus/
Chirisa Richmond Technology Park CTP-02,virginia,37.3602883,-77.3255172,,,https://chirisatechnologyparks.com/locations/richmond-va/?utm_source=datacentermap.com,https://www.datacentermap.com/usa/virginia/richmond/chirisa-richmond-ctp-02/
Microsoft Boydton Campus,virginia,36.6778975,-78.3745743,,,https://datacenters.microsoft.com/?utm_source=datacentermap.com,https://www.datacentermap.com/usa/virginia/richmond/microsoft-boydton/
Menlo Digital MD-DC3 (Richmond),virginia,37.21025522488623,-77.36258969483367,208,,https://menlo-digital.com/portfolio/md-dc3-richmond/?utm_source=datacentermap.com,https://www.datacentermap.com/usa/virginia/richmond/menlo-digital-md-dc3-richmond/
Carmel Church Data Hub,virginia,37.92948935630978,-77.47262522311522,300,,https://avaiodigital.com/#projects?utm_source=datacentermap.com,https://www.datacentermap.com/usa/virginia/richmond/the-carmel-church-data-hub/
Hunting Hawk Technology Park,virginia,37.713705,-77.61179,900,,https://www.hhhunt.com/?utm_source=datacentermap.com,https://www.datacentermap.com/usa/virginia/richmond/hunting-hawk-technology-park/
PointOne Richmond Data Center Campus,virginia,37.44892393892321,-77.15702175140754,424,,https://pointonecorp.com/richmond-data-center-campus-2?utm_source=datacentermap.com,https://www.datacentermap.com/usa/virginia/richmond/pointone-richmond-data-center-campus/
Microsoft Prison Road - Building 4,virginia,36.65910923757927,-78.36201812464091,,,https://datacenters.microsoft.com/?utm_source=datacentermap.com,https://www.datacentermap.com/usa/virginia/richmond/microsoft-prison-road-building-4/
Infotel Systems Data Center,virginia,37.6129416,-77.4733134,,,https://infotelsystems.com/facilities/?utm_source=datacentermap.com,https://www.datacentermap.com/usa/virginia/richmond/infotel-systems-data-center/
Google Project Loch,virginia,37.499315,-77.6883919,,,https://datacenters.google/?utm_source=datacentermap.com,https://www.datacentermap.com/usa/virginia/richmond/google-project-loch/
Windstream Innsbrook,virginia,37.660947,-77.573954,,,https://www.windstreamwholesale.com/solutions/?utm_source=datacentermap.com,https://www.datacentermap.com/usa/virginia/richmond/cavalier/
Microsoft Prison Road - Building 1,virginia,36.65984506887202,-78.36582988592774,,,https://datacenters.microsoft.com/?utm_source=datacentermap.com,https://www.datacentermap.com/usa/virginia/richmond/microsoft-prison-road-building-1/
Chirisa Richmond Technology Park CTP-01,virginia,37.3599239,-77.3270829,,,https://chirisatechnologyparks.com/locations/richmond-va/?utm_source=datacentermap.com,https://www.datacentermap.com/usa/virginia/richmond/chirisa-richmond-ctp-01/
Microsoft Hillcrest (AVC02),virginia,36.74177662428327,-78.1022553245613,,,https://datacenters.microsoft.com/?utm_source=datacentermap.com,https://www.datacentermap.com/usa/virginia/richmond/microsoft-hillcrest-avc02/
Microsoft Boydton - Building 6,virginia,36.68606805168415,-78.37719968910044,,,https://datacenters.microsoft.com/?utm_source=datacentermap.com,https://www.datacentermap.com/usa/virginia/richmond/microsoft-boydton-building-6/
Microsoft Prison Road - Building 3,virginia,36.6593218117863,-78.3634246034045,,,https://datacenters.microsoft.com/?utm_source=datacentermap.com,https://www.datacentermap.com/usa/virginia/richmond/microsoft-prison-road-building-3/
Microsoft Boydton - Building 11,virginia,36.6949704,-78.3762941,,,https://datacenters.microsoft.com/?utm_source=datacentermap.com,https://www.datacentermap.com/usa/virginia/richmond/microsoft-boydton-building-11/
Microsoft Ridge Road - Building 4,virginia,36.69628416108112,-78.36414915114244,,,https://datacenters.microsoft.com/?utm_source=datacentermap.com,https://www.datacentermap.com/usa/virginia/richmond/microsoft-ridge-road-building-4/
Microsoft Boydton - Building 2,virginia,36.67783186388552,-78.37468914177767,,,https://datacenters.microsoft.com/?utm_source=datacentermap.com,https://www.datacentermap.com/usa/virginia/richmond/microsoft-boydton-building-2/
