Name,State,Latitude,Longitude,IT Load (MW),PUE,Website,Source URL,Space Type,Classification_Source,Is_Aggregated,Confidence_Score,Annual_Heat_MWh
MSA Evergreen Heights,pennsylvania,40.5186006,-80.01519189999999,4.0,1.91,,https://www.datacentermap.com/usa/pennsylvania/pittsburgh/msa-evergreen-heights/,Small,P1,False,5,31536.0
MSA Rockpointe,pennsylvania,,,5.0,1.91,,https://www.datacentermap.com/usa/pennsylvania/pittsburgh/management-science-associates/,Small,P1,False,5,39420.0
Ark Data Centers Pittsburgh,pennsylvania,40.7523755,-79.6373443,1.5,1.91,https://arkdna.com/?utm_source=datacentermap.com,https://www.datacentermap.com/usa/pennsylvania/pittsburgh/involta-pittsburgh/,Small,P1,False,5,11826.0
Ardent Pittsburgh,pennsylvania,40.43957436734448,-80.14201806425895,20.0,1.68,https://ardentdc.com/?utm_source=datacentermap.com,https://www.datacentermap.com/usa/pennsylvania/pittsburgh/ardent-pittsburgh/,Midsize/Colo,P1,False,5,157680.0
DQE Pittsburgh,pennsylvania,40.4389026,-80.0005467,1.0,1.91,https://www.dqecom.com/services/colocation/?utm_source=datacentermap.com,https://www.datacentermap.com/usa/pennsylvania/pittsburgh/dqe-pittsburgh/,Small,P4,False,1,7884.0
Expedient  Pittsburgh South,pennsylvania,40.4273688,-80.0425116,1.8,1.91,https://www.expedient.com/?utm_source=datacentermap.com,https://www.datacentermap.com/usa/pennsylvania/pittsburgh/expedient-pittsburgh/,Small,P1,False,5,14191.2
H5 Data Centers Pittsburgh,pennsylvania,40.4516548,-79.98092220000001,15.0,1.68,https://h5datacenters.com/pittsburgh-data-center.html?utm_source=datacentermap.com,https://www.datacentermap.com/usa/pennsylvania/pittsburgh/h5-pittsburgh/,Midsize/Colo,P3,False,1,118260.0
DQE Butler,pennsylvania,40.8605536,-79.907493,1.0,1.91,https://www.dqecom.com/services/colocation/?utm_source=datacentermap.com,https://www.datacentermap.com/usa/pennsylvania/pittsburgh/dqe-butler/,Small,P4,False,1,7884.0
Ascent Data,pennsylvania,40.4959821,-79.8665983,1.0,1.91,https://www.ascentdata.com/secure-data-center/?utm_source=datacentermap.com,https://www.datacentermap.com/usa/pennsylvania/pittsburgh/ascent-data/,Small,P4,False,1,7884.0
182 Northpointe Blvd,pennsylvania,40.7559041,-79.6367597,100.0,1.22,https://chirisatechnologyparks.com/?utm_source=datacentermap.com,https://www.datacentermap.com/usa/pennsylvania/pittsburgh/182-northpointe-blvd/,Hyperscale,P1,False,5,788400.0
Expedient Pittsburgh North Shore,pennsylvania,40.4515505,-80.0046619,4.2,1.91,https://www.expedient.com/data-centers/pittsburgh/?utm_source=datacentermap.com,https://www.datacentermap.com/usa/pennsylvania/pittsburgh/expedient-pittsburgh-north-shore/,Small,P1,False,5,33112.8
viLogics Pittsburgh,pennsylvania,40.4387509,-80.0008304,1.0,1.91,http://www.vilogics.com?utm_source=datacentermap.com,https://www.datacentermap.com/usa/pennsylvania/pittsburgh/vilogics-pittsburgh/,Small,P4,False,1,7884.0
TECfusions New Kensington,pennsylvania,40.54475736471054,-79.64300366232152,200.0,1.22,https://tecfusions.com/?clarksville&utm_source=datacentermap.com,https://www.datacentermap.com/usa/pennsylvania/pittsburgh/tecfusions-new-kensington/,Hyperscale,P1,False,5,1576800.0
aspStation Data Center,pennsylvania,40.4652826,-79.946724,15.0,1.68,https://www.aspstation.net/services.html?utm_source=datacentermap.com,https://www.datacentermap.com/usa/pennsylvania/pittsburgh/aspstation/,Midsize/Colo,P3,False,1,118260.0
Cogent Data Center - Pittsburgh,pennsylvania,40.4595629,-79.96937659999999,15.0,1.68,https://www.cogentco.com/en/?utm_source=datacentermap.com,https://www.datacentermap.com/usa/pennsylvania/pittsburgh/cogent-data-center-pittsburgh/,Midsize/Colo,P3,False,1,118260.0
iM Critical Pittsburgh,pennsylvania,40.43405629999999,-79.8728691,10.0,1.2,https://imcritical.com/locations/pittsburgh/?utm_source=datacentermap.com,https://www.datacentermap.com/usa/pennsylvania/pittsburgh/im-critical-pittsburgh/,Midsize/Colo,P1,False,5,78840.0
Consolidated Pittsburgh,pennsylvania,40.5186006,-80.01519189999999,1.0,1.91,https://www.consolidated.com/business/medium-enterprise/data-center-services/locations/pennsylvania?utm_source=datacentermap.com,https://www.datacentermap.com/usa/pennsylvania/pittsburgh/consolidated-pittsburgh/,Small,P4,False,1,7884.0
Pittsburgh Tech Center,pennsylvania,40.4389026,-80.0005467,1.0,1.91,,https://www.datacentermap.com/usa/pennsylvania/pittsburgh/pittsburgh-tech-center/,Small,P4,False,1,7884.0
Consolidated Tarentum,pennsylvania,40.6015299,-79.81950479999999,1.0,1.91,https://www.consolidated.com/business/medium-enterprise/data-center-services/locations/pennsylvania?utm_source=datacentermap.com,https://www.datacentermap.com/usa/pennsylvania/pittsburgh/consolidated-tarentum/,Small,P4,False,1,7884.0
Bitfarms Scrubgrass,pennsylvania,41.268925,-79.8113259,85.0,1.22,https://bitfarms.com/?utm_source=datacentermap.com,https://www.datacentermap.com/usa/pennsylvania/pittsburgh/bitfarms-scrubgrass/,Hyperscale,P1,False,5,670140.0
Nova Place,pennsylvania,40.45067168251518,-80.00565483174317,1.0,1.91,https://novaplace.com/?utm_source=datacentermap.com,https://www.datacentermap.com/usa/pennsylvania/pittsburgh/nova-place/,Small,P4,False,1,7884.0
Sierra Data Center,pennsylvania,40.4389111,-80.0005541,15.0,1.68,https://www.sierradatacenters.com/?utm_source=datacentermap.com,https://www.datacentermap.com/usa/pennsylvania/pittsburgh/sierra-data-center/,Midsize/Colo,P3,False,1,118260.0
201 Pendale Road,pennsylvania,40.84822645655902,-80.34659941235346,50.0,1.22,https://www.providentdatacenters.net/?utm_source=datacentermap.com,https://www.datacentermap.com/usa/pennsylvania/pittsburgh/201-pendale-road/,Hyperscale,P3,False,1,394200.0
Citynet Pittsburgh,pennsylvania,40.4506834,-80.0056791,15.0,1.68,https://www.citynet.net/?utm_source=datacentermap.com,https://www.datacentermap.com/usa/pennsylvania/pittsburgh/citynet-pittsburgh/,Midsize/Colo,P3,False,1,118260.0
The Homer City Energy Campus,pennsylvania,40.51373735901925,-79.19593245632844,15.0,1.68,https://www.homercityredevelopment.com/project-overview?utm_source=datacentermap.com,https://www.datacentermap.com/usa/pennsylvania/pittsburgh/the-homer-city-energy-campus/,Midsize/Colo,P3,False,1,118260.0
151 Porter St,pennsylvania,40.53948750953155,-79.79030595209623,1.0,1.91,https://charah.com/?utm_source=datacentermap.com,https://www.datacentermap.com/usa/pennsylvania/pittsburgh/151-porter-st/,Small,P4,False,1,7884.0
TECfusions Keystone Connect,pennsylvania,40.54621337910504,-79.64519513164295,12.0,1.68,https://tecfusions.com/?utm_source=datacentermap.com,https://www.datacentermap.com/usa/pennsylvania/pittsburgh/tecfusions-keystone-connect/,Midsize/Colo,P1,False,5,94608.0
Bitfarms Sharon,pennsylvania,41.23298037280916,-80.49363317268894,110.0,1.22,https://bitfarms.com/our-portfolio/data-centers/north-america/?utm_source=datacentermap.com,https://www.datacentermap.com/usa/pennsylvania/pittsburgh/bitfarms-sharon/,Hyperscale,P1,False,5,867240.0
Netrality - 401 N Broad Philadelphia Data Center,pennsylvania,39.95956,-75.160838,40.0,1.22,,https://www.datacentermap.com/usa/pennsylvania/philadelphia/terminal-commerce-building/,Hyperscale,P1,False,5,315360.0
Flexential Phiadelphia - Collegeville Data Center,pennsylvania,40.1521924,-75.4777223,7.2,1.91,,https://www.datacentermap.com/usa/pennsylvania/philadelphia/flexential-philadelphia-collegeville/,Small,P1,False,5,56764.8
365 Data Centers - Philadelphia (University City),pennsylvania,39.9569045,-75.1960744,15.0,1.68,https://365datacenters.com/philadelphia-data-center/?utm_source=datacentermap.com,https://www.datacentermap.com/usa/pennsylvania/philadelphia/switchdata-philadelphia1/,Midsize/Colo,P3,False,1,118260.0
Colocation America PHILLYDC2,pennsylvania,40.1218859,-75.4208343,15.0,1.68,https://www.colocationamerica.com/data-center-locations/philadelphia?utm_source=datacentermap.com,https://www.datacentermap.com/usa/pennsylvania/philadelphia/colocation-america-600-s-federal/,Midsize/Colo,P3,False,1,118260.0
Keystone NAP,pennsylvania,40.1535174,-74.7426452,2.0,1.91,http://www.keystonenap.com?utm_source=datacentermap.com,https://www.datacentermap.com/usa/pennsylvania/philadelphia/keystone-nap-1/,Small,P1,False,5,15768.0
H5 Data Centers Philadelphia,pennsylvania,39.9623477,-75.1639321,15.0,1.68,https://h5datacenters.com/philadelphia-data-center.html?utm_source=datacentermap.com,https://www.datacentermap.com/usa/pennsylvania/philadelphia/h5-philadelphia/,Midsize/Colo,P3,False,1,118260.0
365 Data Centers - Philadelphia (Downtown),pennsylvania,39.9623509,-75.1637363,10.0,1.68,https://365datacenters.com/philadelphia-data-center-2/?utm_source=datacentermap.com,https://www.datacentermap.com/usa/pennsylvania/philadelphia/365-data-centers-philadelphia/,Midsize/Colo,P1,False,5,78840.0
TrueNet,pennsylvania,39.94657855735757,-75.57975769042969,15.0,1.68,https://www.truenet.com?utm_source=datacentermap.com,https://www.datacentermap.com/usa/pennsylvania/philadelphia/truenet/,Midsize/Colo,P3,False,1,118260.0
11:11 Systems Philadelphia,pennsylvania,39.9596208,-75.16102049999999,1.0,1.91,https://www.sungardas.com/fr-fr/facilities/north-america/usa/philadelphia-401-data-centre-and-workplace-recovery-centre/?utm_source=datacentermap.com,https://www.datacentermap.com/usa/pennsylvania/philadelphia/1111-systems-philadelphia/,Small,P4,False,1,7884.0
Comcast Moorestown,pennsylvania,39.9893611,-74.88954009999999,1.0,1.91,https://business.comcast.com/enterprise/products-services/data-networking?utm_source=datacentermap.com,https://www.datacentermap.com/usa/pennsylvania/philadelphia/comcast-moorestown/,Small,P4,False,1,7884.0
DaSTOR King of Prussia II,pennsylvania,40.0880512,-75.33907239999999,1.0,1.91,https://dastorllc.com/3400-horizon-drive-king-of-prussia-pennsylvania/?utm_source=datacentermap.com,https://www.datacentermap.com/usa/pennsylvania/philadelphia/agile-prussia-philadelphia/,Small,P4,False,1,7884.0
Crown Castle Philadelphia (PA1),pennsylvania,39.9598126,-75.1608872,5.0,1.91,https://www.crowncastle.com/infrastructure-solutions/colocation?utm_source=datacentermap.com,https://www.datacentermap.com/usa/pennsylvania/philadelphia/crown-castle-philadelphia2/,Small,P1,False,5,39420.0
DaSTOR King of Prussia I,pennsylvania,40.0755149,-75.3330189,1.0,1.91,https://dastorllc.com/411-swedeland-road-king-of-prussia-pennsylvania/?utm_source=datacentermap.com,https://www.datacentermap.com/usa/pennsylvania/philadelphia/dastor-king-of-prussia/,Small,P4,False,1,7884.0
Crown Castle Philadelphia (PA2),pennsylvania,39.9605975,-75.1604395,1.0,1.91,https://www.crowncastle.com/infrastructure-solutions/colocation?utm_source=datacentermap.com,https://www.datacentermap.com/usa/pennsylvania/philadelphia/crown-castle-philadelphia1/,Small,P1,False,5,7884.0
Unisecure Philadelphia DC,pennsylvania,39.9503525,-75.1800289,1.0,1.91,https://www.unisecure.com/philadelphia-dc-facility/?utm_source=datacentermap.com,https://www.datacentermap.com/usa/pennsylvania/philadelphia/unisecure-philadelphia-dc/,Small,P4,False,1,7884.0
Colocation America PHILLYDC3,pennsylvania,40.6749288,-75.3781221,15.0,1.68,https://www.colocationamerica.com/data-center-locations/philadelphia?utm_source=datacentermap.com,https://www.datacentermap.com/usa/pennsylvania/philadelphia/colocation-america-phillydc3/,Midsize/Colo,P3,False,1,118260.0
Windstream New York,pennsylvania,39.959887,-75.1608556,1.0,1.91,https://www.windstreamwholesale.com/solutions/?utm_source=datacentermap.com,https://www.datacentermap.com/usa/pennsylvania/philadelphia/401-n-broad-st/,Small,P4,False,1,7884.0
1500 Spring Garden Street,pennsylvania,39.9626155,-75.1643636,1.0,1.91,https://www.1500sg.com/?utm_source=datacentermap.com,https://www.datacentermap.com/usa/pennsylvania/philadelphia/1500-spring-garden-street/,Small,P4,False,1,7884.0
1547 Chester County PA,pennsylvania,40.03706225700031,-75.58937363781276,450.0,1.22,https://www.1547realty.com/data-center/chester-county-pa/?utm_source=datacentermap.com,https://www.datacentermap.com/usa/pennsylvania/philadelphia/1547-chester-county-pa/,Hyperscale,P1,False,5,3547800.0
Digital Edge Philly,pennsylvania,39.9598387,-75.1608381,1.0,1.91,https://www.digitaledge.net?utm_source=datacentermap.com,https://www.datacentermap.com/usa/pennsylvania/philadelphia/de-philly/,Small,P4,False,1,7884.0
ColoHouse Philadelphia,pennsylvania,39.9503063,-75.1799827,1.0,1.91,https://colohouse.com/philadelphia/?utm_source=datacentermap.com,https://www.datacentermap.com/usa/pennsylvania/philadelphia/colohouse-philadelphia/,Small,P1,False,5,7884.0
Comcast West Chester,pennsylvania,39.9986964,-75.57366309999999,1.0,1.91,https://business.comcast.com/enterprise/products-services/data-networking?utm_source=datacentermap.com,https://www.datacentermap.com/usa/pennsylvania/philadelphia/comcast-west-chester/,Small,P4,False,1,7884.0
Colocation America PHILLYDC1,pennsylvania,40.5437738,-75.65453149999999,15.0,1.68,https://www.colocationamerica.com/data-center-locations/philadelphia?utm_source=datacentermap.com,https://www.datacentermap.com/usa/pennsylvania/philadelphia/colocation-america-phillydc1/,Midsize/Colo,P3,False,1,118260.0
York  Energy Center DC,pennsylvania,39.738594,-76.305066,1.0,1.91,https://www.calpine.com/?utm_source=datacentermap.com,https://www.datacentermap.com/usa/pennsylvania/philadelphia/york-energy-center-dc/,Small,P4,False,1,7884.0
Keystone Trade Center,pennsylvania,40.14962636371349,-74.74974999967482,1.0,1.91,https://www.keystone-trade.com/?utm_source=datacentermap.com,https://www.datacentermap.com/usa/pennsylvania/philadelphia/keystone-trade-center/,Small,P4,False,1,7884.0
Pennhurst Data Center Campus,pennsylvania,40.1940773,-75.5612281,1.0,1.91,,https://www.datacentermap.com/usa/pennsylvania/philadelphia/pennhurst-data-center-campus/,Small,P4,False,1,7884.0
LightWave Networks,pennsylvania,39.9596414,-75.1610312,15.0,1.68,https://www.lightwavenetworks.com/our-services/dedicated-servers/philadelphia/?utm_source=datacentermap.com,https://www.datacentermap.com/usa/pennsylvania/philadelphia/lightwave-networks/,Midsize/Colo,P3,False,1,118260.0
Project Laurel - Building 8,pennsylvania,40.232941,-75.56828,1.0,1.91,,https://www.datacentermap.com/usa/pennsylvania/philadelphia/project-laurel-building-h/,Small,P4,False,1,7884.0
Project Laurel - Building 5,pennsylvania,40.234369,-75.577082,1.0,1.91,,https://www.datacentermap.com/usa/pennsylvania/philadelphia/project-laurel-building-e/,Small,P4,False,1,7884.0
Project Laurel - Building 3,pennsylvania,40.23205,-75.579277,1.0,1.91,,https://www.datacentermap.com/usa/pennsylvania/philadelphia/project-laurel-building-c/,Small,P4,False,1,7884.0
Project Laurel Campus,pennsylvania,40.231418,-75.575488,1.0,1.91,,https://www.datacentermap.com/usa/pennsylvania/philadelphia/project-laurel-campus/,Small,P4,False,1,7884.0
Project Laurel - Building 7,pennsylvania,40.232996,-75.574776,1.0,1.91,,https://www.datacentermap.com/usa/pennsylvania/philadelphia/project-laurel-building-g/,Small,P4,False,1,7884.0
Project Laurel - Building 4,pennsylvania,40.231484,-75.577995,1.0,1.91,,https://www.datacentermap.com/usa/pennsylvania/philadelphia/project-laurel-building-d/,Small,P4,False,1,7884.0
Project Laurel - Building 1,pennsylvania,40.232134,-75.582178,1.0,1.91,,https://www.datacentermap.com/usa/pennsylvania/philadelphia/project-laurel-building-a/,Small,P4,False,1,7884.0
Project Laurel - Building 6,pennsylvania,40.233467,-75.575689,1.0,1.91,,https://www.datacentermap.com/usa/pennsylvania/philadelphia/project-laurel-building-f/,Small,P4,False,1,7884.0
Project Laurel - Building 2,pennsylvania,40.230606,-75.580469,1.0,1.91,,https://www.datacentermap.com/usa/pennsylvania/philadelphia/project-laurel-building-b/,Small,P4,False,1,7884.0
Wildcat Ridge AI Data Center Campus,pennsylvania,41.4992705504684,-75.58517928386553,1.0,1.91,,https://www.datacentermap.com/usa/pennsylvania/allentown/wildcat-ridge-ai-data-center-campus/,Small,P4,False,1,7884.0
Cetronia Road Data Center,pennsylvania,40.55165,-75.59867580000001,1.0,1.91,https://www.airproducts.com/?utm_source=datacentermap.com,https://www.datacentermap.com/usa/pennsylvania/allentown/cetronia-road-data-center/,Small,P4,False,1,7884.0
Project Hazelnut,pennsylvania,40.94884417268824,-76.04377091926054,1.0,1.91,https://www.beyondthecontract.com/?utm_source=datacentermap.com,https://www.datacentermap.com/usa/pennsylvania/allentown/project-hazelnut/,Small,P4,False,1,7884.0
Bitfarms Panther Creek,pennsylvania,40.8561775,-75.8772484,80.0,1.22,https://bitfarms.com/?utm_source=datacentermap.com,https://www.datacentermap.com/usa/pennsylvania/allentown/bitfarms-panther-creek/,Hyperscale,P1,False,5,630720.0
Contegix Wyomissing,pennsylvania,40.355377,-75.984699,2.0,1.91,https://www.contegix.com?utm_source=datacentermap.com,https://www.datacentermap.com/usa/pennsylvania/reading/dss-data-center/,Small,P1,False,5,15768.0
Direct LTx Data Center,pennsylvania,40.3813197,-75.9820247,6.0,1.91,https://www.directltx.com/facility-information?utm_source=datacentermap.com,https://www.datacentermap.com/usa/pennsylvania/reading/directlink-technologies/,Small,P1,False,5,47304.0
DaSTOR Reading BCC,pennsylvania,40.3809603,-75.9822741,1.0,1.91,https://dastorllc.com/2561-bernville-rd-reading-pennsylvania/?utm_source=datacentermap.com,https://www.datacentermap.com/usa/pennsylvania/reading/ipr-reading-bcc/,Small,P4,False,1,7884.0
Omega Systems Reading,pennsylvania,40.3412333,-76.0053744,1.0,1.91,https://omegasystemscorp.com/?utm_source=datacentermap.com,https://www.datacentermap.com/usa/pennsylvania/reading/omega-systems-reading/,Small,P4,False,1,7884.0
Alerify Data Center,pennsylvania,40.3175212,-76.8547797,15.0,1.68,https://www.alerify.com?utm_source=datacentermap.com,https://www.datacentermap.com/usa/pennsylvania/harrisburg/netrepid/,Midsize/Colo,P3,False,1,118260.0
Pennsylvania Digital 1 Campus,pennsylvania,40.25273596079513,-77.11658756635103,1500.0,1.22,https://www.padatacenters.com/campus?utm_source=datacentermap.com,https://www.datacentermap.com/usa/pennsylvania/harrisburg/pennsylvania-digital-1-campus/,Hyperscale,P1,False,5,11826000.0
"Harrisburg I, LLC",pennsylvania,40.22804663932868,-76.80991109818449,1.0,1.91,,https://www.datacentermap.com/usa/pennsylvania/harrisburg/harrisburg-i-llc/,Small,P4,False,1,7884.0
Loop Internet DC2,pennsylvania,41.2213752,-75.8944717,1.0,1.91,https://loopinternet.com?utm_source=datacentermap.com,https://www.datacentermap.com/usa/pennsylvania/wilkes-barre/loopinternet-dc2/,Small,P4,False,1,7884.0
1375 Harrisburg Pike,pennsylvania,40.0594582,-76.3299246,1.0,1.91,https://machineinv.com/?utm_source=datacentermap.com,https://www.datacentermap.com/usa/pennsylvania/lancaster/1375-harrisburg-pike/,Small,P4,False,1,7884.0
Archbald Data & Energy Center,pennsylvania,41.51225842300114,-75.556084663847,1.0,1.91,,https://www.datacentermap.com/usa/pennsylvania/scranton/archbald-data-energy-center/,Small,P4,False,1,7884.0
Popca LLC,pennsylvania,41.44722631647892,-75.71166614974582,1.0,1.91,,https://www.datacentermap.com/usa/pennsylvania/scranton/popca-llc/,Small,P4,False,1,7884.0
Gouldsboro Data Center Campus,pennsylvania,41.24724396339624,-75.51496616514993,50.0,1.22,https://ne-edgedatacenters.com/?utm_source=datacentermap.com,https://www.datacentermap.com/usa/pennsylvania/scranton/gouldsboro-data-center-campus/,Hyperscale,P3,False,1,394200.0
Project Gravity,pennsylvania,41.522419,-75.55832,1.0,1.91,https://www.thetimes-tribune.com/wp-content/uploads/2025/04/STT-L-DATAPLANS-0410-01-1.jpg?fit=1280%2C9999px&ssl=1&utm_source=datacentermap.com,https://www.datacentermap.com/usa/pennsylvania/scranton/project-gravity/,Small,P4,False,1,7884.0
Project Gravity - Building 5,pennsylvania,41.521386,-75.560213,1.0,1.91,https://www.thetimes-tribune.com/wp-content/uploads/2025/04/STT-L-DATAPLANS-0410-01-1.jpg?fit=1280%2C9999px&ssl=1&utm_source=datacentermap.com,https://www.datacentermap.com/usa/pennsylvania/scranton/project-gravity-building-5/,Small,P4,False,1,7884.0
Project Gravity - Building 1,pennsylvania,41.527122,-75.559811,1.0,1.91,https://www.thetimes-tribune.com/wp-content/uploads/2025/04/STT-L-DATAPLANS-0410-01-1.jpg?fit=1280%2C9999px&ssl=1&utm_source=datacentermap.com,https://www.datacentermap.com/usa/pennsylvania/scranton/project-gravity-building-1/,Small,P4,False,1,7884.0
Project Gravity - Building 2,pennsylvania,41.526407,-75.558651,1.0,1.91,https://www.thetimes-tribune.com/wp-content/uploads/2025/04/STT-L-DATAPLANS-0410-01-1.jpg?fit=1280%2C9999px&ssl=1&utm_source=datacentermap.com,https://www.datacentermap.com/usa/pennsylvania/scranton/project-gravity-building-2/,Small,P4,False,1,7884.0
Project Gravity - Building 4,pennsylvania,41.523078,-75.562929,1.0,1.91,https://www.thetimes-tribune.com/wp-content/uploads/2025/04/STT-L-DATAPLANS-0410-01-1.jpg?fit=1280%2C9999px&ssl=1&utm_source=datacentermap.com,https://www.datacentermap.com/usa/pennsylvania/scranton/project-gravity-building-4/,Small,P4,False,1,7884.0
Project Gravity - Building 6,pennsylvania,41.51962,-75.556503,1.0,1.91,https://www.thetimes-tribune.com/wp-content/uploads/2025/04/STT-L-DATAPLANS-0410-01-1.jpg?fit=1280%2C9999px&ssl=1&utm_source=datacentermap.com,https://www.datacentermap.com/usa/pennsylvania/scranton/project-gravity-building-6/,Small,P4,False,1,7884.0
Project Gravity - Building 3,pennsylvania,41.523975,-75.56182,1.0,1.91,https://www.thetimes-tribune.com/wp-content/uploads/2025/04/STT-L-DATAPLANS-0410-01-1.jpg?fit=1280%2C9999px&ssl=1&utm_source=datacentermap.com,https://www.datacentermap.com/usa/pennsylvania/scranton/project-gravity-building-3/,Small,P4,False,1,7884.0
viLogics Ebensburg,pennsylvania,40.458574,-78.7587762,3.0,1.91,http://www.vilogics.com?utm_source=datacentermap.com,https://www.datacentermap.com/usa/pennsylvania/ebensburg/vilogics/,Small,P1,False,5,23652.0
viLogics South Park Building,pennsylvania,,,40.0,1.22,http://www.vilogics.com?utm_source=datacentermap.com,https://www.datacentermap.com/usa/pennsylvania/ebensburg/south-park-building/,Hyperscale,P1,False,5,315360.0
Centre WISP SCDC1,pennsylvania,40.7857414,-77.9006986,1.0,1.91,https://www.centrewisp.com?utm_source=datacentermap.com,https://www.datacentermap.com/usa/pennsylvania/state-college/scdc1/,Small,P4,False,1,7884.0
Prologis Lehigh Valley East 16,pennsylvania,40.70181256614234,-75.47980847777544,1.0,1.91,https://www.prologis.com/industrial-properties/spec-building/pen03003-prologis-lehigh-valley-east-16?utm_source=datacentermap.com,https://www.datacentermap.com/usa/pennsylvania/lehigh-valley/prologis-lehigh-valley-east-16/,Small,P4,False,1,7884.0
Aligned - Shippingport Industrial Park,pennsylvania,40.6350827,-80.414996,15.0,1.68,https://aligneddc.com/?utm_source=datacentermap.com,https://www.datacentermap.com/usa/pennsylvania/pittsburgh/aligned-shippingport-industrial-park/,Midsize/Colo,P2,False,1,118260.0
Amazon AWS Susquehanna Hyperscale Campus,pennsylvania,41.082593,-76.147162,50.0,1.22,https://aws.amazon.com/compliance/data-center/data-centers/?utm_source=datacentermap.com,https://www.datacentermap.com/usa/pennsylvania/wilkes-barre/amazon-aws-susquehanna-hyperscale-campus/,Hyperscale,P2,True,1,394200.0
Amazon AWS PHL - Cumulus Blvd,pennsylvania,41.081084,-76.145642,50.0,1.22,https://aws.amazon.com/compliance/data-center/data-centers/?utm_source=datacentermap.com,https://www.datacentermap.com/usa/pennsylvania/wilkes-barre/amazon-aws-phl-cumulus-blvd/,Hyperscale,P2,False,1,394200.0
Amazon AWS PHL - 1035 Salem Blvd,pennsylvania,41.079197,-76.145793,50.0,1.22,https://aws.amazon.com/compliance/data-center/data-centers/?utm_source=datacentermap.com,https://www.datacentermap.com/usa/pennsylvania/wilkes-barre/amazon-aws-phl-1035-salem-blvd/,Hyperscale,P2,False,1,394200.0
Amazon AWS PHL - 1025 Salem Blvd,pennsylvania,41.077456,-76.145646,50.0,1.22,https://aws.amazon.com/compliance/data-center/data-centers/?utm_source=datacentermap.com,https://www.datacentermap.com/usa/pennsylvania/wilkes-barre/amazon-aws-phl-1025-salem-blvd/,Hyperscale,P2,False,1,394200.0
Amazon Pennsylvania (Aggregated),pennsylvania,40.87553644444444,-76.01741066666666,50.0,1.22,https://aws.amazon.com/es/trust-center/data-center/?utm_source=datacentermap.com,https://www.datacentermap.com/usa/pennsylvania/pottsville/amazon-aws-lofty-road-bldg-e/,Hyperscale,P2,True,1,394200.0
Amazon AWS - Lofty Road,pennsylvania,40.874272,-76.017496,50.0,1.22,https://aws.amazon.com/es/trust-center/data-center/?utm_source=datacentermap.com,https://www.datacentermap.com/usa/pennsylvania/pottsville/amazon-aws-lofty-road/,Hyperscale,P2,False,1,394200.0
American Tower EDC Pittsburg,pennsylvania,40.396889,-79.958972,1.0,1.91,http://www.americantower.com/us/edgedata/?utm_source=datacentermap.com,https://www.datacentermap.com/usa/pennsylvania/pittsburgh/edge-dc-pittsburg/,Small,P2,False,1,7884.0
Mawson Midland,pennsylvania,40.63213856372092,-80.45199089337257,120.0,1.22,https://www.mawsoninc.com/?utm_source=datacentermap.com,https://www.datacentermap.com/usa/pennsylvania/pittsburgh/mawson-midland/,Hyperscale,P1,False,5,946080.0
CoreWeave Lancaster,pennsylvania,40.0484027,-76.259976,20.0,1.14,https://www.coreweave.com/?utm_source=datacentermap.com,https://www.datacentermap.com/usa/pennsylvania/lancaster/coreweave-lancaster/,AI Specialized,P2,False,1,157680.0
DataBank PIT2 - Summit Park,pennsylvania,40.4513337,-80.1901013,5.0,1.91,https://www.databank.com/data-centers/pittsburgh/summit-park-campus/summit-park/?utm_source=datacentermap.com,https://www.datacentermap.com/usa/pennsylvania/pittsburgh/databank-pit2-summit-park/,Small,P1,False,5,39420.0
DataBank PIT1 - Downtown Pittsburgh,pennsylvania,40.451298,-80.0056592,1.9,1.91,https://www.databank.com/data-centers/pittsburgh/100-south-commons/?utm_source=datacentermap.com,https://www.datacentermap.com/usa/pennsylvania/pittsburgh/databank-pittsburgh/,Small,P1,False,5,14979.6
DataBank PHL1 - Downtown Philadelphia,pennsylvania,39.9598593,-75.1608918,0.34,1.91,https://www.databank.com/data-centers/philadelphia/401-north-broad-street/?utm_source=datacentermap.com,https://www.datacentermap.com/usa/pennsylvania/philadelphia/zcolo-401-n-broad/,Small,P1,False,5,2680.5600000000004
EdgeConneX Pittsburgh - EDCPIT01,pennsylvania,40.452221,-80.041515,1.0,1.91,https://www.edgeconnex.com/locations/americas/pittsburgh-pa/?utm_source=datacentermap.com,https://www.datacentermap.com/usa/pennsylvania/pittsburgh/edcpit01/,Small,P1,False,5,7884.0
Equinix PH1,pennsylvania,39.959604,-75.16199,15.0,1.68,https://www.equinix.com/?utm_source=datacentermap.com,https://www.datacentermap.com/usa/pennsylvania/philadelphia/switch-data-philadelphia2/,Midsize/Colo,P2,False,1,118260.0
Iron Mountain Data Centers WPA-1,pennsylvania,41.0914783,-79.9134942,15.5,1.3,https://www.ironmountain.com/data-centers/locations/pennsylvania-data-center?utm_source=datacentermap.com,https://www.datacentermap.com/usa/pennsylvania/pittsburgh/iron-mountain-wpa-1/,Midsize/Colo,P1,False,5,122202.00000000001
Lumen Pittsburgh 2,pennsylvania,40.4300449,-79.9597071,15.0,1.68,https://www.lumen.com/?utm_source=datacentermap.com,https://www.datacentermap.com/usa/pennsylvania/pittsburgh/lumen-pittsburgh-2/,Midsize/Colo,P2,False,1,118260.0
Lumen Pittsburgh 1,pennsylvania,40.4544534,-79.9804247,15.0,1.68,https://www.lumen.com/?utm_source=datacentermap.com,https://www.datacentermap.com/usa/pennsylvania/pittsburgh/level3-pittsburgh1/,Midsize/Colo,P2,False,1,118260.0
Lumen Philadelphia 1,pennsylvania,39.95956,-75.160838,15.0,1.68,https://www.lumen.com/en-us/home.html?utm_source=datacentermap.com,https://www.datacentermap.com/usa/pennsylvania/philadelphia/level-3-philadelphia/,Midsize/Colo,P2,False,1,118260.0
Lumen Philadelphia 2,pennsylvania,39.9517188,-75.1525596,15.0,1.68,https://www.lumen.com/?utm_source=datacentermap.com,https://www.datacentermap.com/usa/pennsylvania/philadelphia/level3-philadelphia2/,Midsize/Colo,P2,False,1,118260.0
Lumen Philadelphia 3,pennsylvania,39.9545805,-75.184596,15.0,1.68,https://www.lumen.com/?utm_source=datacentermap.com,https://www.datacentermap.com/usa/pennsylvania/philadelphia/level3-philadelphia3/,Midsize/Colo,P2,False,1,118260.0
Lumen Lancaster 1,pennsylvania,40.0491834,-76.2519853,15.0,1.68,https://www.lumen.com/?utm_source=datacentermap.com,https://www.datacentermap.com/usa/pennsylvania/lancaster/lumen-lancaster-1/,Midsize/Colo,P2,False,1,118260.0
QTS Salem,pennsylvania,41.07281067336523,-76.17063585994508,15.0,1.68,https://q.com/data-centers/qts-pennsylvania/?utm_source=datacentermap.com,https://www.datacentermap.com/usa/pennsylvania/wilkes-barre/qts-salem/,Midsize/Colo,P2,False,1,118260.0
TeraSwitch Networks Pittsburgh,pennsylvania,40.4509125,-80.0051218,2.0,1.3,https://teraswitch.com/datacenters/pittsburgh/?utm_source=datacentermap.com,https://www.datacentermap.com/usa/pennsylvania/pittsburgh/teraswitch-networks---dc1/,Small,P1,False,5,15768.0
TierPoint Philadelphia- Navy Yard,pennsylvania,39.8924992,-75.1655079,15.0,1.68,https://www.tierpoint.com/?utm_source=datacentermap.com,https://www.datacentermap.com/usa/pennsylvania/philadelphia/philadelphia-technology-park/,Midsize/Colo,P2,False,1,118260.0
"TierPoint Allentown-TekPark, PA",pennsylvania,40.5443278,-75.6543079,16.0,1.68,https://www.tierpoint.com?utm_source=datacentermap.com,https://www.datacentermap.com/usa/pennsylvania/allentown/tek-park/,Midsize/Colo,P1,False,5,126144.0
TierPoint Valley Forge,pennsylvania,40.1218541,-75.4208973,15.0,1.68,https://www.tierpoint.com/data-centers/pennsylvania/valley-forge/?utm_source=datacentermap.com,https://www.datacentermap.com/usa/pennsylvania/valley-forge/valley-forge/,Midsize/Colo,P2,False,1,118260.0
TierPoint Lehigh Valley,pennsylvania,40.6749901,-75.3780242,15.0,1.68,http://www.TierPoint.com?utm_source=datacentermap.com,https://www.datacentermap.com/usa/pennsylvania/bethlehem/tierpoint-lehigh-valley/,Midsize/Colo,P2,False,1,118260.0
TierPoint Bethlehem,pennsylvania,40.6703361,-75.3749518,15.0,1.68,https://www.tierpoint.com?utm_source=datacentermap.com,https://www.datacentermap.com/usa/pennsylvania/bethlehem/lehigh-valley/,Midsize/Colo,P2,False,1,118260.0
