Name,State,Latitude,Longitude,IT Load (MW),PUE,Website,Source URL,Space Type,Classification_Source,Is_Aggregated,Confidence_Score,Annual_Heat_MWh
Flexential Denver - Parker,colorado,39.5601018,-104.8107281,22.5,1.68,,https://www.datacentermap.com/usa/colorado/denver/flexential-denver-parker/,Midsize/Colo,P1,False,5,177390.0
Flexential Denver - Aurora Data Center,colorado,39.661028,-104.85018,6.75,1.91,,https://www.datacentermap.com/usa/colorado/denver/flexential-aurora/,Small,P1,False,5,53217.0
Flexential Denver - Centennial Data Center - $0 NRC's,colorado,39.594093,-104.843141,1.6,1.91,,https://www.datacentermap.com/usa/colorado/denver/flexential-centennial/,Small,P1,False,5,12614.400000000001
Flexential Denver - Englewood Data Center,colorado,39.5589561,-104.8374803,18.0,1.3,,https://www.datacentermap.com/usa/colorado/denver/flexential-englewood/,Midsize/Colo,P1,False,5,141912.0
US Signal Denver CO01,colorado,39.5590337,-104.8334949,1.6,1.91,https://ussignal.com/data-centers/co01-denver/?utm_source=datacentermap.com,https://www.datacentermap.com/usa/colorado/denver/oneneck-it-solutions/,Small,P1,False,5,12614.400000000001
1500 Champa,colorado,39.7459482,-104.9944892,3.0,1.91,https://www.radius-dc.com/#location?utm_source=datacentermap.com,https://www.datacentermap.com/usa/colorado/denver/1500-champa/,Small,P1,False,5,23652.0
H5 Data Centers Denver,colorado,39.6180129,-104.8913097,17.5,1.68,https://h5datacenters.com/denver-data-center.html?utm_source=datacentermap.com,https://www.datacentermap.com/usa/colorado/denver/h5datacenter/,Midsize/Colo,P1,False,5,137970.0
365 Data Centers - Aurora,colorado,39.7627264,-104.7622042,8.0,1.91,https://365datacenters.com/?utm_source=datacentermap.com,https://www.datacentermap.com/usa/colorado/denver/sungardas-aurora/,Small,P1,False,5,63072.0
Csquare - Denver DEN1-A,colorado,39.549704,-105.033252,5.4,1.91,https://centersquaredc.com/data-centers/denver#littleton-den1?utm_source=datacentermap.com,https://www.datacentermap.com/usa/colorado/denver/cyxtera-den1/,Small,P1,False,5,42573.600000000006
ColoradoColo Darwin Data Center,colorado,39.7281498,-105.1226064,2.0,1.91,http://www.coloradocolo.com?utm_source=datacentermap.com,https://www.datacentermap.com/usa/colorado/denver/colorado-colo/,Small,P1,False,5,15768.0
Csquare - Denver DEN2-A,colorado,39.560959,-104.830574,3.7,1.91,https://centersquaredc.com/data-centers/denver?utm_source=datacentermap.com,https://www.datacentermap.com/usa/colorado/denver/cyxtera-den2a/,Small,P1,False,5,29170.8
Expedient Centennial,colorado,39.5812479,-104.842607,1.6,1.91,https://www.expedient.com/data-centers/denver/?utm_source=datacentermap.com,https://www.datacentermap.com/usa/colorado/denver/expedient-centennial/,Small,P1,False,5,12614.400000000001
Massive Networks - Louisville,colorado,39.9654525,-105.1242975,15.0,1.68,https://www.massivenetworks.com/?utm_source=datacentermap.com,https://www.datacentermap.com/usa/colorado/denver/rockynetcom/,Midsize/Colo,P3,False,1,118260.0
Csquare - Denver DEN1-B,colorado,39.549737,-105.034348,1.2,1.91,https://centersquaredc.com/data-centers/denver#littleton-den1?utm_source=datacentermap.com,https://www.datacentermap.com/usa/colorado/denver/cyxtera-den2b/,Small,P1,False,5,9460.800000000001
Cogent Data Center - Denver,colorado,39.6308112,-104.8974777,0.8,1.91,http://www.cogentco.com/en/cogent-denver?utm_source=datacentermap.com,https://www.datacentermap.com/usa/colorado/denver/cogent-denver/,Small,P1,False,5,6307.200000000001
Centennial Data Center,colorado,39.5873693,-104.876571,15.0,1.68,https://carterfunds.com/colocation-data-center/?utm_source=datacentermap.com,https://www.datacentermap.com/usa/colorado/denver/centennial-data-center/,Midsize/Colo,P3,False,1,118260.0
Comcast Centennial,colorado,39.58829524537498,-104.8324646868858,2.7,1.91,https://business.comcast.com/enterprise/products-services/data-networking?utm_source=datacentermap.com,https://www.datacentermap.com/usa/colorado/denver/comcast-centennial/,Small,P1,False,5,21286.800000000003
Earthnet Data Center,colorado,40.01971072591039,-105.2420496940613,1.0,1.91,https://earthnet.net?utm_source=datacentermap.com,https://www.datacentermap.com/usa/colorado/denver/earthnet-boulder/,Small,P4,False,1,7884.0
910Telecom,colorado,39.74556,-104.995682,15.0,1.68,http://910telecom.com/?utm_source=datacentermap.com,https://www.datacentermap.com/usa/colorado/denver/910telecom/,Midsize/Colo,P3,False,1,118260.0
Thornton Colorado Data Center,colorado,39.9167466,-104.9864207,1.0,1.91,https://www.morganreed.com/?utm_source=datacentermap.com,https://www.datacentermap.com/usa/colorado/denver/thornton-colorado-data-center/,Small,P4,False,1,7884.0
Denver Gas & Electric Building,colorado,39.745636,-104.9956363,1.0,1.91,https://910telecom.com/history/?utm_source=datacentermap.com,https://www.datacentermap.com/usa/colorado/denver/denver-gas-electric-building/,Small,P4,False,1,7884.0
Vastnet - Denver,colorado,39.828551,-104.976679,15.0,1.68,http://www.vastnet.net/?utm_source=datacentermap.com,https://www.datacentermap.com/usa/colorado/denver/vastnet-denver-co/,Midsize/Colo,P3,False,1,118260.0
Visa Denver,colorado,39.553619,-104.9944523,1.0,1.91,https://usa.visa.com/?utm_source=datacentermap.com,https://www.datacentermap.com/usa/colorado/denver/visa-denver/,Small,P4,False,1,7884.0
Icelab Networks,colorado,39.5682585,-105.0053446,15.0,1.68,https://www.icelab.com/?utm_source=datacentermap.com,https://www.datacentermap.com/usa/colorado/denver/icelab-networks/,Midsize/Colo,P3,False,1,118260.0
Verizon Denver,colorado,39.5653111,-104.8618305,1.0,1.91,https://www.verizon.com/business/?utm_source=datacentermap.com,https://www.datacentermap.com/usa/colorado/denver/xo-denver1/,Small,P4,False,1,7884.0
Massive Networks - Boulder,colorado,40.017643,-105.277434,15.0,1.68,https://www.massivenetworks.com/solutions/data-center-colocation/?utm_source=datacentermap.com,https://www.datacentermap.com/usa/colorado/denver/massive-networks-boulder/,Midsize/Colo,P3,False,1,118260.0
Massive Networks - Denver,colorado,39.745621,-104.9956471,15.0,1.68,https://www.massivenetworks.com/solutions/data-center-colocation/?utm_source=datacentermap.com,https://www.datacentermap.com/usa/colorado/denver/massive-denver/,Midsize/Colo,P3,False,1,118260.0
Data Canopy - Denver,colorado,39.699291,-104.986806,1.0,1.91,https://datacanopy.com/data-centers/denver-co/?utm_source=datacentermap.com,https://www.datacentermap.com/usa/colorado/denver/hosting-denver/,Small,P4,False,1,7884.0
Novva Colorado Springs,colorado,39.0141737,-104.8142876,40.0,1.3,https://www.novva.com/data-center-facilities/colorado/?utm_source=datacentermap.com,https://www.datacentermap.com/usa/colorado/colorado-springs/novva-colorado-springs/,Hyperscale,P1,False,5,315360.0
ColoHouse Colorado Springs,colorado,38.8355484,-104.8236416,15.0,1.68,https://colohouse.com/colorado-springs/?utm_source=datacentermap.com,https://www.datacentermap.com/usa/colorado/colorado-springs/colohouse-colorado-springs/,Midsize/Colo,P3,False,1,118260.0
Springs Hosting Data Center,colorado,38.8150081,-104.7695164,15.0,1.68,https://www.springshosting.com/company/data-center/?utm_source=datacentermap.com,https://www.datacentermap.com/usa/colorado/colorado-springs/springs-hosting/,Midsize/Colo,P3,False,1,118260.0
Plaza of the Rockies West Tower,colorado,38.8321241,-104.8240271,1.0,1.91,https://norwood.dev/?utm_source=datacentermap.com,https://www.datacentermap.com/usa/colorado/colorado-springs/plaza-of-the-rockies-west-tower/,Small,P4,False,1,7884.0
T5 Data Centers - T5@Colorado Springs,colorado,38.78613812959097,-104.7885933532184,50.0,1.22,https://t5datacenters.com/locations/colorado-springs-site-1/?utm_source=datacentermap.com,https://www.datacentermap.com/usa/colorado/colorado-springs/t5-data-centers-t5colorado-springs/,Hyperscale,P3,False,1,394200.0
Windstream Colorado Springs,colorado,38.9971805,-104.792115,1.0,1.91,https://www.windstreamwholesale.com/solutions/?utm_source=datacentermap.com,https://www.datacentermap.com/usa/colorado/colorado-springs/windstream-colorado-springs/,Small,P4,False,1,7884.0
Global AI Windsor,colorado,40.453165,-104.8723131,60.0,1.22,https://www.globalai.com/?utm_source=datacentermap.com,https://www.datacentermap.com/usa/colorado/fort-collins/global-ai-windsor/,Hyperscale,P1,False,5,473040.0
FRII Data Center,colorado,40.5414762,-105.0408908,1.0,1.91,https://frii.com/?utm_source=datacentermap.com,https://www.datacentermap.com/usa/colorado/fort-collins/frii/,Small,P4,False,1,7884.0
BluSky Walsenburg,colorado,37.65031146836225,-104.8013067985928,15.0,1.68,https://bluskyaidatacenters.com/?utm_source=datacentermap.com,https://www.datacentermap.com/usa/colorado/walsenburg/blusky-walsenburg/,Midsize/Colo,P1,False,5,118260.0
CorKat Data,colorado,40.3961336,-105.0769273,1.0,1.91,https://www.corkatdata.com?utm_source=datacentermap.com,https://www.datacentermap.com/usa/colorado/loveland/corkat-data/,Small,P4,False,1,7884.0
American Tower EDC Boulder,colorado,39.914002,-105.0997333,0.1,1.91,https://www.americantower.com/us/data-centers-edge?utm_source=datacentermap.com,https://www.datacentermap.com/usa/colorado/denver/american-tower-edc-boulder/,Small,P1,False,5,788.4000000000001
American Tower EDC Denver,colorado,39.7881188,-104.9878199,0.1,1.91,https://www.americantower.com/us/data-centers-edge?utm_source=datacentermap.com,https://www.datacentermap.com/usa/colorado/denver/american-tower-edc-denver/,Small,P1,False,5,788.4000000000001
CoreSite Denver (DE2),colorado,39.7452193,-104.9793274,15.0,1.68,http://www.coresite.com/data-centers/locations/denver/de2?utm_source=datacentermap.com,https://www.datacentermap.com/usa/colorado/denver/coresite-denver-de2/,Midsize/Colo,P2,False,1,118260.0
CoreSite Denver (DE1),colorado,39.74556,-104.995682,15.0,1.68,https://www.coresite.com/data-center-locations/denver?utm_source=datacentermap.com,https://www.datacentermap.com/usa/colorado/denver/coresite-de1/,Midsize/Colo,P2,False,1,118260.0
CoreSite Denver (DE3),colorado,39.7855948,-104.9629572,18.0,1.68,https://www.coresite.com/data-center/de3-denver-co?utm_source=datacentermap.com,https://www.datacentermap.com/usa/colorado/denver/coresite-denver-de3/,Midsize/Colo,P1,False,5,141912.0
DataBank DEN1 - Englewood,colorado,39.5640712,-104.8665897,2.0,1.91,https://www.databank.com/data-centers/denver/englewood/?utm_source=datacentermap.com,https://www.datacentermap.com/usa/colorado/denver/latisys-denver/,Small,P1,False,5,15768.0
DataBank DEN3 - Downtown Denver,colorado,39.745755,-104.994405,2.0,1.91,https://www.databank.com/data-centers/denver/1500-champa-street/?utm_source=datacentermap.com,https://www.datacentermap.com/usa/colorado/denver/databank-den3/,Small,P1,False,5,15768.0
DataBank DEN2 - Centennial,colorado,39.5913412,-104.8469635,4.0,1.91,https://www.databank.com/data-centers/denver/centennial-campus/centennial/?utm_source=datacentermap.com,https://www.datacentermap.com/usa/colorado/denver/latisys-den2/,Small,P1,False,5,31536.0
DataBank DEN5 - Centennial II,colorado,39.5901643,-104.8470028,16.0,1.68,https://www.databank.com/data-centers/denver/centennial-campus/den5/?utm_source=datacentermap.com,https://www.datacentermap.com/usa/colorado/denver/databank-den5-centennial-ii/,Midsize/Colo,P1,False,5,126144.0
DataBank DEN4 - Westminister,colorado,39.88454,-105.08031,0.5,1.91,https://www.databank.com/data-centers/denver/westminster/?utm_source=datacentermap.com,https://www.datacentermap.com/usa/colorado/denver/databank-den4/,Small,P1,False,5,3942.0
EdgeConneX Denver - EDCDEN01,colorado,39.5640314,-104.8263395,3.0,1.91,https://www.edgeconnex.com/locations/americas/denver-co/?utm_source=datacentermap.com,https://www.datacentermap.com/usa/colorado/denver/edcden01/,Small,P1,False,5,23652.0
EdgeConneX Denver - EDCDEN02,colorado,39.5634767,-104.826833,21.6,1.68,https://www.edgeconnex.com/locations/americas/denver-co/?utm_source=datacentermap.com,https://www.datacentermap.com/usa/colorado/denver/edgeconnex-den02/,Midsize/Colo,P1,False,5,170294.40000000002
Equinix DE2,colorado,39.56025905872824,-104.8576057668798,15.0,1.68,https://www.equinix.com/?utm_source=datacentermap.com,https://www.datacentermap.com/usa/colorado/denver/equinix-de2/,Midsize/Colo,P2,False,1,118260.0
Equinix DE1,colorado,39.587286,-104.876303,15.0,1.68,https://www.equinix.com/?utm_source=datacentermap.com,https://www.datacentermap.com/usa/colorado/denver/switchdata-denver/,Midsize/Colo,P2,False,1,118260.0
Iron Mountain Data Centers DEN-1,colorado,39.777478,-104.96832,12.3,1.2,https://www.ironmountain.com/data-centers/locations/denver-data-center?utm_source=datacentermap.com,https://www.datacentermap.com/usa/colorado/denver/iron-mountain-den-1/,Midsize/Colo,P1,False,5,96973.2
Lumen Denver 1,colorado,39.7457281,-104.9795015,15.0,1.68,https://www.lumen.com/en-us/home.html?utm_source=datacentermap.com,https://www.datacentermap.com/usa/colorado/denver/level3-denver/,Midsize/Colo,P2,False,1,118260.0
Lumen Denver 3,colorado,39.74556,-104.995682,15.0,1.68,https://www.lumen.com/?utm_source=datacentermap.com,https://www.datacentermap.com/usa/colorado/denver/level3-denver3/,Midsize/Colo,P2,False,1,118260.0
Lumen Aurora,colorado,39.7262044,-104.7099417,15.0,1.68,https://www.lumen.com/?utm_source=datacentermap.com,https://www.datacentermap.com/usa/colorado/denver/lumen-aurora/,Midsize/Colo,P2,False,1,118260.0
Lumen Denver 2,colorado,39.682094,-104.823403,15.0,1.68,https://www.lumen.com/en-us/home.html?utm_source=datacentermap.com,https://www.datacentermap.com/usa/colorado/denver/twtc-denver/,Midsize/Colo,P2,False,1,118260.0
Lumen Colorado Springs 2,colorado,38.8318441,-104.8241154,15.0,1.68,https://www.lumen.com/?utm_source=datacentermap.com,https://www.datacentermap.com/usa/colorado/colorado-springs/level3-colorado-springs2/,Midsize/Colo,P2,False,1,118260.0
QTS Aurora-Denver Campus,colorado,39.7340684,-104.7080148,177.0,1.22,https://www.qtsdatacenters.com/?utm_source=datacentermap.com,https://www.datacentermap.com/usa/colorado/denver/qts-auroradenver-campus/,Hyperscale,P1,False,5,1395468.0
