Name,State,Latitude,Longitude,IT Load (MW),PUE,Website,Source URL,Space Type,Classification_Source,Annual_Heat_MWh
Iron Mountain Data Centers VA-1,virginia,38.77792264250294,-77.54703012251925,13.0,1.2,https://www.ironmountain.com/data-centers/locations/virginia-data-center?utm_source=datacentermap.com,https://www.datacentermap.com/usa/virginia/manassas/iron-mountain-va-1/,Midsize/Colo,P1,102492.00000000001
10051 Brickyard Wy,virginia,38.7369178,-77.5078273,1.0,1.91,,https://www.datacentermap.com/usa/virginia/manassas/10051-brickyard-wy/,Small,P4,7884.0
9905 Godwin Drive (IAD53),virginia,38.7404104,-77.5040386,1.0,1.91,,https://www.datacentermap.com/usa/virginia/manassas/digital-realty-9905-godwin-drive/,Small,P4,7884.0
Iron Mountain Data Centers VA-2,virginia,38.77710296786073,-77.54591432365577,36.0,1.2,https://www.ironmountain.com/data-centers/locations/virginia-data-center?utm_source=datacentermap.com,https://www.datacentermap.com/usa/virginia/manassas/iron-mountain-va-2/,Hyperscale,P1,283824.0
EvoSwitch Manassas (WDC1),virginia,38.7464612,-77.5330785,20.0,1.68,https://evoswitch.com/?utm_source=datacentermap.com,https://www.datacentermap.com/usa/virginia/manassas/evoswitch-wdc-1/,Midsize/Colo,P1,157680.0
Equinix DC14,virginia,38.80333,-77.51088,15.0,1.68,https://www.equinix.com/?utm_source=datacentermap.com,https://www.datacentermap.com/usa/virginia/manassas/equinix-dc14/,Midsize/Colo,P2,118260.0
VAZATA NoVA I,virginia,38.7472871,-77.5318712,2.0,1.91,https://www.vazata.com/data-centers/manassas-data-center-nova/?utm_source=datacentermap.com,https://www.datacentermap.com/usa/virginia/manassas/vazata-nova-i/,Small,P1,15768.0
CloudHQ MDC Campus,virginia,38.7314131,-77.5091781,300.0,1.22,https://cloudhq.com/?utm_source=datacentermap.com,https://www.datacentermap.com/usa/virginia/manassas/cloudhq-mdc-campus/,Hyperscale,P1,2365200.0
STACK Infrastructure NVA05A,virginia,38.75885494676042,-77.51648207845305,36.0,1.22,https://www.stackinfra.com/locations/americas/northern-virginia/nva05/?utm_source=datacentermap.com,https://www.datacentermap.com/usa/virginia/manassas/stack-infrastructure-nva05a/,Hyperscale,P1,283824.0
QTS Manassas DC5,virginia,38.75460616666228,-77.51739293212357,42.0,1.22,https://www.qtsdatacenters.com/?utm_source=datacentermap.com,https://www.datacentermap.com/usa/virginia/manassas/qts-manassas5/,Hyperscale,P1,331128.00000000006
CloudHQ MCC Campus,virginia,38.72073196690473,-77.49847011861604,382.0,1.22,https://cloudhq.com/?utm_source=datacentermap.com,https://www.datacentermap.com/usa/virginia/manassas/cloudhq-mcc-campus/,Hyperscale,P1,3011688.0
QTS Manassas Campus,virginia,38.7516218,-77.5112262,150.0,1.22,https://www.qtsdatacenters.com/?utm_source=datacentermap.com,https://www.datacentermap.com/usa/virginia/manassas/qts-manassas-data-center-campus/,Hyperscale,P1,1182600.0
Cloud Capital - 9651 Hornbaker,virginia,38.74741286878826,-77.53174131910815,30.0,1.22,https://cldcap.com/?utm_source=datacentermap.com,https://www.datacentermap.com/usa/virginia/manassas/power-loft-innovation/,Hyperscale,P1,236520.0
Iron Mountain Data Centers VA-6,virginia,38.76806082957219,-77.53874746148891,32.0,1.22,https://www.ironmountain.com/data-centers/locations/virginia-data-center?utm_source=datacentermap.com,https://www.datacentermap.com/usa/virginia/manassas/iron-mountain-va-6/,Hyperscale,P1,252288.0
QTS Manassas DC2,virginia,38.7525638,-77.5124673,20.0,1.68,https://www.qtsdatacenters.com/?utm_source=datacentermap.com,https://www.datacentermap.com/usa/virginia/manassas/qts-manassas2/,Midsize/Colo,P1,157680.0
QTS Manassas DC1,virginia,38.7525053,-77.5130401,15.0,1.68,https://www.qtsdatacenters.com/?utm_source=datacentermap.com,https://www.datacentermap.com/usa/virginia/manassas/qts-manassas1/,Midsize/Colo,P2,118260.0
STACK Infrastructure NVA05B,virginia,38.76115398805212,-77.51505369298008,48.0,1.22,https://www.stackinfra.com/locations/americas/northern-virginia/nva05/?utm_source=datacentermap.com,https://www.datacentermap.com/usa/virginia/manassas/stack-infrastructure-nva05b/,Hyperscale,P1,378432.0
Amazon AWS IAD - Tanner Campus,virginia,38.735635,-77.505307,50.0,1.22,https://aws.amazon.com/compliance/data-center/data-centers/?utm_source=datacentermap.com,https://www.datacentermap.com/usa/virginia/manassas/amazon-aws-iad-tanner-campus/,Hyperscale,P2,394200.0
Microsoft Jacksonville Road Campus,virginia,38.79877467113093,-77.53349910934595,50.0,1.22,https://datacenters.microsoft.com/?utm_source=datacentermap.com,https://www.datacentermap.com/usa/virginia/manassas/microsoft-jacksonville-road-campus/,Hyperscale,P2,394200.0
CloudHQ MCC3,virginia,38.7135228,-77.5000601,60.0,1.22,https://cloudhq.com/?utm_source=datacentermap.com,https://www.datacentermap.com/usa/virginia/manassas/cloudhq-mcc3/,Hyperscale,P1,473040.0
CloudHQ MCC7,virginia,38.72237573223926,-77.50134707234268,36.0,1.22,https://cloudhq.com/campus/mcc-campus/?utm_source=datacentermap.com,https://www.datacentermap.com/usa/virginia/manassas/cloudhq-mcc7/,Hyperscale,P1,283824.0
Amazon AWS IAD - Doane Campus,virginia,38.791002,-77.54747,50.0,1.22,https://aws.amazon.com/compliance/data-center/data-centers/?utm_source=datacentermap.com,https://www.datacentermap.com/usa/virginia/manassas/amazon-aws-iad-doane-campus/,Hyperscale,P2,394200.0
CloudHQ MCC5,virginia,38.7198091,-77.4929744,60.0,1.22,https://cloudhq.com/?utm_source=datacentermap.com,https://www.datacentermap.com/usa/virginia/manassas/cloudhq-mcc5/,Hyperscale,P1,473040.0
CloudHQ MCC4,virginia,38.7187555,-77.4963883,60.0,1.22,https://cloudhq.com/?utm_source=datacentermap.com,https://www.datacentermap.com/usa/virginia/manassas/cloudhq-mcc4/,Hyperscale,P1,473040.0
CloudHQ MCC6A,virginia,38.7153954,-77.4964052,20.0,1.68,https://cloudhq.com/?utm_source=datacentermap.com,https://www.datacentermap.com/usa/virginia/manassas/cloudhq-mcc6/,Midsize/Colo,P1,157680.0
CloudHQ MCC6Z,virginia,38.71546793545276,-77.49657647794285,40.0,1.22,https://cloudhq.com/campus/mcc-campus/?utm_source=datacentermap.com,https://www.datacentermap.com/usa/virginia/manassas/cloudhq-mcc6z/,Hyperscale,P1,315360.0
Iron Mountain Data Centers VA-3,virginia,38.775430133237734,-77.54516330518996,15.0,1.68,https://www.ironmountain.com/data-centers/locations/virginia-data-center?utm_source=datacentermap.com,https://www.datacentermap.com/usa/virginia/manassas/iron-mountain-va-3/,Midsize/Colo,P2,118260.0
Amazon AWS IAD - Mason Campus,virginia,38.790828,-77.539582,50.0,1.22,https://aws.amazon.com/compliance/data-center/data-centers/?utm_source=datacentermap.com,https://www.datacentermap.com/usa/virginia/manassas/amazon-aws-iad-mason-campus/,Hyperscale,P2,394200.0
CloudHQ MCC2,virginia,38.7231852,-77.4989941,1.0,1.91,https://cloudhq.com/?utm_source=datacentermap.com,https://www.datacentermap.com/usa/virginia/manassas/cloudhq-mcc2/,Small,P4,7884.0
Iron Mountain Data Centers VA-7,virginia,38.77540504036094,-77.54030314261834,36.0,1.22,https://www.ironmountain.com/data-centers/locations/virginia-data-center?utm_source=datacentermap.com,https://www.datacentermap.com/usa/virginia/manassas/iron-mountain-va-7/,Hyperscale,P1,283824.0
Iron Mountain Data Centers VA-9,virginia,38.76993861373228,-77.54067765888713,28.0,1.68,https://www.ironmountain.com/data-centers/locations/virginia-data-center?utm_source=datacentermap.com,https://www.datacentermap.com/usa/virginia/manassas/iron-mountain-data-centers-va-9/,Midsize/Colo,P1,220752.0
Amazon AWS IAD - Freedom Campus,virginia,38.760645,-77.51865,50.0,1.22,https://aws.amazon.com/compliance/data-center/data-centers/?utm_source=datacentermap.com,https://www.datacentermap.com/usa/virginia/manassas/amazon-aws-iad-freedom-campus/,Hyperscale,P2,394200.0
Amazon AWS IAD - 8158 Sudley,virginia,38.7764555346383,-77.50833841187627,50.0,1.22,https://aws.amazon.com/compliance/data-center/data-centers/?utm_source=datacentermap.com,https://www.datacentermap.com/usa/virginia/manassas/amazon-aws-iad-8158-sudley/,Hyperscale,P2,394200.0
Amazon AWS IAD - 10321 Tanner,virginia,38.734555,-77.506516,50.0,1.22,https://aws.amazon.com/compliance/data-center/data-centers/?utm_source=datacentermap.com,https://www.datacentermap.com/usa/virginia/manassas/amazon-aws-iad-10321-tanner/,Hyperscale,P2,394200.0
Amazon AWS IAD - 9700 Innovation,virginia,38.747507,-77.519566,50.0,1.22,https://aws.amazon.com/compliance/data-center/data-centers/?utm_source=datacentermap.com,https://www.datacentermap.com/usa/virginia/manassas/amazon-aws-iad-9700-innovation/,Hyperscale,P2,394200.0
Microsoft - MNZ02,virginia,38.798514,-77.534999,50.0,1.22,https://datacenters.microsoft.com/?utm_source=datacentermap.com,https://www.datacentermap.com/usa/virginia/manassas/microsoft-mnz02/,Hyperscale,P2,394200.0
Amazon AWS IAD - Innovation Campus,virginia,38.747517,-77.519447,50.0,1.22,https://aws.amazon.com/compliance/data-center/data-centers/?utm_source=datacentermap.com,https://www.datacentermap.com/usa/virginia/manassas/amazon-aws-iad-innovation-campus/,Hyperscale,P2,394200.0
Microsoft Hansen Farm,virginia,38.7814337,-77.569774,50.0,1.22,https://local.microsoft.com/blog/hansen-farm-datacenter-construction-update/?utm_source=datacentermap.com,https://www.datacentermap.com/usa/virginia/manassas/microsoft-hansen-farm/,Hyperscale,P2,394200.0
Amazon AWS IAD - 8180 Bethlehem,virginia,38.778506,-77.539361,50.0,1.22,https://aws.amazon.com/compliance/data-center/data-centers/?utm_source=datacentermap.com,https://www.datacentermap.com/usa/virginia/manassas/amazon-aws-iad-8180-bethlehem/,Hyperscale,P2,394200.0
OVHcloud VIN1,virginia,38.7473762,-77.67455009999999,50.0,1.22,https://www.ovhcloud.com/es-es/datacenters-ovhcloud/?utm_source=datacentermap.com,https://www.datacentermap.com/usa/virginia/manassas/ovhcloud-vint-hill/,Hyperscale,P2,394200.0
STACK Infrastructure NVA02F,virginia,38.74382418605755,-77.53733091651817,1.0,1.91,https://www.stackinfra.com/locations/americas/northern-virginia/nva02/?utm_source=datacentermap.com,https://www.datacentermap.com/usa/virginia/manassas/stack-infrastructure-nva02f/,Small,P4,7884.0
Amazon AWS IAD - 7080 Wellington,virginia,38.778845,-77.557087,50.0,1.22,https://aws.amazon.com/compliance/data-center/data-centers/?utm_source=datacentermap.com,https://www.datacentermap.com/usa/virginia/manassas/amazon-aws-iad-7080-wellington/,Hyperscale,P2,394200.0
STACK Infrastructure NVA02G,virginia,38.74802635011257,-77.53801912060673,1.0,1.91,https://www.stackinfra.com/locations/americas/northern-virginia/nva02/?utm_source=datacentermap.com,https://www.datacentermap.com/usa/virginia/manassas/stack-infrastructure-nva02g/,Small,P4,7884.0
Amazon AWS IAD - 9740 Innovation,virginia,38.746372,-77.517319,50.0,1.22,https://aws.amazon.com/compliance/data-center/data-centers/?utm_source=datacentermap.com,https://www.datacentermap.com/usa/virginia/manassas/amazon-aws-iad-9740-innovation/,Hyperscale,P2,394200.0
Amazon - Dumfries Rd & Colchester Park,virginia,38.6300375,-77.41517100000002,50.0,1.22,https://aws.amazon.com/es/compliance/data-center/controls/?utm_source=datacentermap.com,https://www.datacentermap.com/usa/virginia/manassas/amazon-dumfries-rd-colchester-park/,Hyperscale,P2,394200.0
Amazon AWS IAD - 7505 Mason,virginia,38.791203,-77.538204,50.0,1.22,https://aws.amazon.com/compliance/data-center/data-centers/?utm_source=datacentermap.com,https://www.datacentermap.com/usa/virginia/manassas/amazon-aws-iad-7505-mason/,Hyperscale,P2,394200.0
Amazon AWS IAD - 8190 Bethlehem,virginia,38.780207,-77.539835,50.0,1.22,https://aws.amazon.com/compliance/data-center/data-centers/?utm_source=datacentermap.com,https://www.datacentermap.com/usa/virginia/manassas/amazon-aws-iad-8190-bethlehem/,Hyperscale,P2,394200.0
Amazon AWS IAD - Bethlehem Campus,virginia,38.779563,-77.540861,50.0,1.22,https://aws.amazon.com/compliance/data-center/data-centers/?utm_source=datacentermap.com,https://www.datacentermap.com/usa/virginia/manassas/amazon-aws-iad-bethlehem-campus/,Hyperscale,P2,394200.0
Amazon AWS IAD - 9680 Innovation,virginia,38.748492,-77.520584,50.0,1.22,https://aws.amazon.com/compliance/data-center/data-centers/?utm_source=datacentermap.com,https://www.datacentermap.com/usa/virginia/manassas/amazon-aws-iad-9680-innovation/,Hyperscale,P2,394200.0
Amazon AWS IAD - 14209 Dumfries,virginia,38.6464076,-77.44362579999999,50.0,1.22,https://aws.amazon.com/es/compliance/data-center/?utm_source=datacentermap.com,https://www.datacentermap.com/usa/virginia/manassas/amazon-aws-iad-14209-dumfries/,Hyperscale,P2,394200.0
COPT DC-19,virginia,38.77870300000001,-77.537466,50.0,1.22,https://www.copt.com/data/?utm_source=datacentermap.com,https://www.datacentermap.com/usa/virginia/manassas/copt-dc-19/,Hyperscale,P3,394200.0
Amazon AWS IAD - 7500 Bethlehem,virginia,38.79189981189595,-77.53577536964004,50.0,1.22,https://aws.amazon.com/compliance/data-center/data-centers/?utm_source=datacentermap.com,https://www.datacentermap.com/usa/virginia/manassas/amazon-aws-iad-7500-bethlehem/,Hyperscale,P2,394200.0
Amazon AWS IAD - 11800 Brewers,virginia,38.791074,-77.548313,50.0,1.22,https://aws.amazon.com/compliance/data-center/data-centers/?utm_source=datacentermap.com,https://www.datacentermap.com/usa/virginia/manassas/amazon-aws-iad-11800-brewers/,Hyperscale,P2,394200.0
Amazon AWS IAD - 10301 Tanner,virginia,38.735373,-77.505722,50.0,1.22,https://aws.amazon.com/compliance/data-center/data-centers/?utm_source=datacentermap.com,https://www.datacentermap.com/usa/virginia/manassas/amazon-aws-iad-10301-tanner/,Hyperscale,P2,394200.0
Amazon AWS IAD - 7070 Wellington,virginia,38.777461,-77.557848,50.0,1.22,https://aws.amazon.com/compliance/data-center/data-centers/?utm_source=datacentermap.com,https://www.datacentermap.com/usa/virginia/manassas/amazon-aws-iad-7070-wellington/,Hyperscale,P2,394200.0
Amazon AWS IAD - 11200 Thomasson,virginia,38.743967,-77.529206,50.0,1.22,https://aws.amazon.com/compliance/data-center/data-centers/?utm_source=datacentermap.com,https://www.datacentermap.com/usa/virginia/manassas/amazon-aws-iad-11200-thomasson/,Hyperscale,P2,394200.0
Iron Mountain Data Centers Manassas,virginia,38.78350457490253,-77.5361467890129,15.0,1.68,https://chirisatechnologyparks.com/?utm_source=datacentermap.com,https://www.datacentermap.com/usa/virginia/manassas/iron-mountain-data-centers-manassas/,Midsize/Colo,P2,118260.0
Amazon AWS IAD - 7610 Mason,virginia,38.790484,-77.541109,50.0,1.22,https://aws.amazon.com/compliance/data-center/data-centers/?utm_source=datacentermap.com,https://www.datacentermap.com/usa/virginia/manassas/amazon-aws-iad-7610-mason/,Hyperscale,P2,394200.0
Microsoft - MNZ01,virginia,38.798514,-77.534999,50.0,1.22,https://datacenters.microsoft.com/?utm_source=datacentermap.com,https://www.datacentermap.com/usa/virginia/manassas/microsoft-mnz01/,Hyperscale,P2,394200.0
Amazon AWS IAD - 9020 Freedom,virginia,38.761072,-77.518164,50.0,1.22,https://aws.amazon.com/compliance/data-center/data-centers/?utm_source=datacentermap.com,https://www.datacentermap.com/usa/virginia/manassas/amazon-aws-iad-9020-freedom/,Hyperscale,P2,394200.0
Amazon AWS IAD - 7600 Doane,virginia,38.792151,-77.548433,50.0,1.22,https://aws.amazon.com/compliance/data-center/data-centers/?utm_source=datacentermap.com,https://www.datacentermap.com/usa/virginia/manassas/amazon-aws-iad-7600-doane/,Hyperscale,P2,394200.0
Amazon AWS IAD - 11801 Brewers,virginia,38.789875,-77.54822,50.0,1.22,https://aws.amazon.com/compliance/data-center/data-centers/?utm_source=datacentermap.com,https://www.datacentermap.com/usa/virginia/manassas/amazon-aws-iad-11801-brewers/,Hyperscale,P2,394200.0
Amazon AWS IAD - 8210 Bethlehem,virginia,38.779304,-77.542889,50.0,1.22,https://aws.amazon.com/compliance/data-center/data-centers/?utm_source=datacentermap.com,https://www.datacentermap.com/usa/virginia/manassas/amazon-aws-iad-8210-bethlehem/,Hyperscale,P2,394200.0
Amazon AWS IAD - 11150 Thomasson,virginia,38.743961,-77.530548,50.0,1.22,https://aws.amazon.com/compliance/data-center/data-centers/?utm_source=datacentermap.com,https://www.datacentermap.com/usa/virginia/manassas/amazon-aws-iad-11150-thomasson/,Hyperscale,P2,394200.0
Amazon AWS IAD - 7060 Wellington,virginia,38.777947,-77.559096,50.0,1.22,https://aws.amazon.com/compliance/data-center/data-centers/?utm_source=datacentermap.com,https://www.datacentermap.com/usa/virginia/manassas/amazon-aws-iad-7060-wellington/,Hyperscale,P2,394200.0
Amazon AWS IAD - 14237 Dumfries,virginia,38.6454885,-77.4421533,50.0,1.22,https://aws.amazon.com/es/compliance/data-center/?utm_source=datacentermap.com,https://www.datacentermap.com/usa/virginia/manassas/amazon-aws-iad-14237-dumfries/,Hyperscale,P2,394200.0
Amazon AWS IAD - 9720 Innovation,virginia,38.747078,-77.518501,50.0,1.22,https://aws.amazon.com/compliance/data-center/data-centers/?utm_source=datacentermap.com,https://www.datacentermap.com/usa/virginia/manassas/amazon-aws-iad-9720-innovation/,Hyperscale,P2,394200.0
Amazon AWS - 6894-6922 Wellington Rd,virginia,38.7829027,-77.5600434,50.0,1.22,https://blackchambergroup.com/?utm_source=datacentermap.com,https://www.datacentermap.com/usa/virginia/manassas/6895-wellington-road/,Hyperscale,P2,394200.0
Amazon AWS IAD - 7510 Mason,virginia,38.790484,-77.541109,50.0,1.22,https://aws.amazon.com/compliance/data-center/data-centers/?utm_source=datacentermap.com,https://www.datacentermap.com/usa/virginia/manassas/amazon-aws-iad-7510-mason/,Hyperscale,P2,394200.0
Amazon AWS IAD - Thomasson Campus,virginia,38.743911,-77.529946,50.0,1.22,https://aws.amazon.com/compliance/data-center/data-centers/?utm_source=datacentermap.com,https://www.datacentermap.com/usa/virginia/manassas/amazon-aws-iad-thomasson-campus/,Hyperscale,P2,394200.0
Amazon AWS IAD - 9040 Freedom,virginia,38.760356,-77.519209,50.0,1.22,https://aws.amazon.com/compliance/data-center/data-centers/?utm_source=datacentermap.com,https://www.datacentermap.com/usa/virginia/manassas/amazon-aws-iad-9040-freedom/,Hyperscale,P2,394200.0
Verizon Manassas,virginia,38.8048857,-77.5123619,1.0,1.91,https://www.verizon.com/business/?utm_source=datacentermap.com,https://www.datacentermap.com/usa/virginia/manassas/verizon-manassas/,Small,P4,7884.0
Amazon AWS IAD - 8200 Bethlehem,virginia,38.779387,-77.5416,50.0,1.22,https://aws.amazon.com/compliance/data-center/data-centers/?utm_source=datacentermap.com,https://www.datacentermap.com/usa/virginia/manassas/amazon-aws-iad-8200-bethlehem/,Hyperscale,P2,394200.0
PRP - 7816 Bethlehem,virginia,38.78434133645856,-77.53715392224507,1.0,1.91,https://prprei.com/?utm_source=datacentermap.com,https://www.datacentermap.com/usa/virginia/manassas/prp-7816-bethlehem/,Small,P4,7884.0
QTS Manassas DC6,virginia,38.75014241785635,-77.51301378771683,15.0,1.68,https://www.qtsdatacenters.com/?utm_source=datacentermap.com,https://www.datacentermap.com/usa/virginia/manassas/qts-manassas-dc6/,Midsize/Colo,P2,118260.0
QTS Manassas DC3,virginia,38.75311780158218,-77.51089320633147,15.0,1.68,https://www.qtsdatacenters.com/?utm_source=datacentermap.com,https://www.datacentermap.com/usa/virginia/manassas/qts-manassas-dc3/,Midsize/Colo,P2,118260.0
QTS Manassas DC4,virginia,38.75265883627064,-77.51646634539554,15.0,1.68,https://www.qtsdatacenters.com/?utm_source=datacentermap.com,https://www.datacentermap.com/usa/virginia/manassas/qts-manassas-dc4/,Midsize/Colo,P2,118260.0
Iron Mountain Data Centers VA-4,virginia,38.77444314240671,-77.54228797734945,15.0,1.68,https://www.ironmountain.com/data-centers/locations/virginia-data-center?utm_source=datacentermap.com,https://www.datacentermap.com/usa/virginia/manassas/iron-mountain-va-4/,Midsize/Colo,P2,118260.0
Iron Mountain Data Centers VA-5,virginia,38.77300445334242,-77.54122582266207,15.0,1.68,https://www.ironmountain.com/data-centers/locations/virginia-data-center?utm_source=datacentermap.com,https://www.datacentermap.com/usa/virginia/manassas/iron-mountain-va-5/,Midsize/Colo,P2,118260.0
Amazon AWS IAD - Wellington Glen Tech Park,virginia,38.76834220107523,-77.54396368674271,50.0,1.22,https://aws.amazon.com/compliance/data-center/data-centers/?utm_source=datacentermap.com,https://www.datacentermap.com/usa/virginia/manassas/aws-iad-wellington-glen-tech-park/,Hyperscale,P2,394200.0
CloudHQ MDC3,virginia,38.7324459,-77.5104987,84.0,1.22,https://cloudhq.com/?utm_source=datacentermap.com,https://www.datacentermap.com/usa/virginia/manassas/cloudhq-mdc3/,Hyperscale,P1,662256.0000000001
Amazon AWS IAD - Wellington Campus (Manassas),virginia,38.77882,-77.557732,50.0,1.22,https://aws.amazon.com/compliance/data-center/data-centers/?utm_source=datacentermap.com,https://www.datacentermap.com/usa/virginia/manassas/amazon-aws-iad-wellington-campus/,Hyperscale,P2,394200.0
CloudHQ MDC1,virginia,38.7307377,-77.5079467,84.0,1.22,https://cloudhq.com/?utm_source=datacentermap.com,https://www.datacentermap.com/usa/virginia/manassas/cloudhq-mdc1/,Hyperscale,P1,662256.0000000001
CloudHQ MDC2,virginia,38.7318257,-77.5092771,84.0,1.22,https://cloudhq.com/?utm_source=datacentermap.com,https://www.datacentermap.com/usa/virginia/manassas/cloudhq-mdc2/,Hyperscale,P1,662256.0000000001
Iron Mountain Data Centers VA-8,virginia,38.77126997797848,-77.54201997375532,15.0,1.68,https://www.ironmountain.com/data-centers/locations/virginia-data-center?utm_source=datacentermap.com,https://www.datacentermap.com/usa/virginia/manassas/iron-mountain-data-centers-va-8/,Midsize/Colo,P2,118260.0
Iron Mountain VIrginia Campus,virginia,38.77686737087214,-77.54284595000682,15.0,1.68,https://www.ironmountain.com/data-centers/locations/virginia-data-center?utm_source=datacentermap.com,https://www.datacentermap.com/usa/virginia/manassas/iron-mountain-virginia-campus/,Midsize/Colo,P2,118260.0
Amazon AWS IAD - 8501 Vulcan Lane,virginia,38.77006009999999,-77.5136619,50.0,1.22,https://aws.amazon.com/compliance/data-center/data-centers/?utm_source=datacentermap.com,https://www.datacentermap.com/usa/virginia/manassas/amazon-aws-iad-8501-vulcan-lane/,Hyperscale,P2,394200.0
Amazon AWS IAD - 7151 Century Park Dr,virginia,38.79835481804113,-77.54183201534673,50.0,1.22,https://aws.amazon.com/compliance/data-center/data-centers/?utm_source=datacentermap.com,https://www.datacentermap.com/usa/virginia/manassas/amazon-aws-iad-7151-century-park-dr/,Hyperscale,P2,394200.0
Amazon AWS IAD - 8401 Vulcan Lane,virginia,38.7673391,-77.5256966,50.0,1.22,https://aws.amazon.com/compliance/data-center/data-centers/?utm_source=datacentermap.com,https://www.datacentermap.com/usa/virginia/manassas/amazon-aws-iad-8401-vulcan-lane/,Hyperscale,P2,394200.0
Amazon AWS IAD - 11901 Sudley Manor Dr B,virginia,38.76776759495681,-77.54394678768165,50.0,1.22,https://aws.amazon.com/compliance/data-center/data-centers/?utm_source=datacentermap.com,https://www.datacentermap.com/usa/virginia/manassas/amazon-aws-iad-11901-sudley-manor-dr-b/,Hyperscale,P2,394200.0
STACK Infrastructure NVA05D,virginia,38.76479024154248,-77.5174746196178,1.0,1.91,https://www.stackinfra.com/locations/americas/portland/por03/?utm_source=datacentermap.com,https://www.datacentermap.com/usa/virginia/manassas/stack-infrastructure-nva05d/,Small,P4,7884.0
Amazon AWS IAD - 7350 Century Park Dr,virginia,38.797091,-77.5416259,50.0,1.22,https://aws.amazon.com/compliance/data-center/data-centers/?utm_source=datacentermap.com,https://www.datacentermap.com/usa/virginia/manassas/amazon-aws-iad-7350-century-park-dr/,Hyperscale,P2,394200.0
Amazon AWS IAD - 11901 Sudley Manor Dr A,virginia,38.76937232259343,-77.5435690204344,50.0,1.22,https://aws.amazon.com/compliance/data-center/data-centers/?utm_source=datacentermap.com,https://www.datacentermap.com/usa/virginia/manassas/amazon-aws-iad-11901-sudley-manor-dr-a/,Hyperscale,P2,394200.0
STACK Infrastructure NVA05C,virginia,38.7608383896757,-77.51224389103382,1.0,1.91,https://www.stackinfra.com/locations/americas/portland/por03/?utm_source=datacentermap.com,https://www.datacentermap.com/usa/virginia/manassas/stack-infrastructure-nva05c/,Small,P4,7884.0
Amazon AWS IAD - 10261 Tanner,virginia,38.737,-77.504082,50.0,1.22,https://aws.amazon.com/compliance/data-center/data-centers/?utm_source=datacentermap.com,https://www.datacentermap.com/usa/virginia/manassas/amazon-aws-iad-10281-tanner1/,Hyperscale,P2,394200.0
Amazon AWS IAD - 10281 Tanner,virginia,38.735968,-77.50489,50.0,1.22,https://aws.amazon.com/compliance/data-center/data-centers/?utm_source=datacentermap.com,https://www.datacentermap.com/usa/virginia/manassas/amazon-aws-iad-10281-tanner/,Hyperscale,P2,394200.0
Digital Dulles Campus,virginia,38.95945,-77.4885,1.0,1.91,,https://www.datacentermap.com/usa/virginia/dulles/digital-dulles-campus/,Small,P4,7884.0
Old Ox Road,virginia,38.95945,-77.4885,1.0,1.91,,https://www.datacentermap.com/usa/virginia/dulles/old-ox-road/,Small,P4,7884.0
43704 Efficiency (IAD44),virginia,38.96116390842681,-77.49159623257039,1.0,1.91,,https://www.datacentermap.com/usa/virginia/dulles/43704-efficiency-iad44/,Small,P4,7884.0
Yondr Loundoun County Campus,virginia,38.9491595589422,-77.5499270995697,336.0,1.22,https://www.yondrgroup.com/locations/?utm_source=datacentermap.com,https://www.datacentermap.com/usa/virginia/dulles/yondr-loundoun-county-campus/,Hyperscale,P1,2649024.0000000005
Yondr Loundoun County DC1,virginia,38.9501009,-77.54978899999999,48.0,1.22,https://www.yondrgroup.com/?utm_source=datacentermap.com,https://www.datacentermap.com/usa/virginia/dulles/yondr-loundoun-county-dc1/,Hyperscale,P1,378432.0
Amazon AWS IAD - Fadeley & Woodside Campus,virginia,38.948433,-77.52136,50.0,1.22,https://aws.amazon.com/compliance/data-center/data-centers/?utm_source=datacentermap.com,https://www.datacentermap.com/usa/virginia/dulles/aws-iad-fadeley-woodside-campus/,Hyperscale,P2,394200.0
Amazon AWS IAD - Kipper Campus,virginia,38.995817,-77.435925,50.0,1.22,https://aws.amazon.com/compliance/data-center/data-centers/?utm_source=datacentermap.com,https://www.datacentermap.com/usa/virginia/dulles/amazon-aws-iad-kipper-campus/,Hyperscale,P2,394200.0
Yondr Loundoun County DC2,virginia,38.94862875797401,-77.5502904867314,48.0,1.22,https://www.yondrgroup.com/locations/?utm_source=datacentermap.com,https://www.datacentermap.com/usa/virginia/dulles/yondr-loundoun-county-dc2/,Hyperscale,P1,378432.0
Amazon AWS IAD - 22420 Kipper,virginia,38.995047,-77.435287,50.0,1.22,https://aws.amazon.com/compliance/data-center/data-centers/?utm_source=datacentermap.com,https://www.datacentermap.com/usa/virginia/dulles/amazon-aws-iad-22420-kipper/,Hyperscale,P2,394200.0
Amazon AWS IAD - 22370 Kipper,virginia,38.996839,-77.435703,50.0,1.22,https://aws.amazon.com/compliance/data-center/data-centers/?utm_source=datacentermap.com,https://www.datacentermap.com/usa/virginia/dulles/amazon-aws-iad-22370-kipper/,Hyperscale,P2,394200.0
22262 Cloud Plz,virginia,39.0005746,-77.4397659,46.0,1.22,https://sentineldatacenters.com/?utm_source=datacentermap.com,https://www.datacentermap.com/usa/virginia/dulles/22262-cloud-plz/,Hyperscale,P1,362664.0
Amazon AWS IAD - 24234 Quail,virginia,38.94808,-77.559119,50.0,1.22,https://aws.amazon.com/compliance/data-center/data-centers/?utm_source=datacentermap.com,https://www.datacentermap.com/usa/virginia/dulles/amazon-aws-iad-24234-quail/,Hyperscale,P2,394200.0
Amazon AWS IAD - 24224 Quail,virginia,38.948042,-77.560416,50.0,1.22,https://aws.amazon.com/compliance/data-center/data-centers/?utm_source=datacentermap.com,https://www.datacentermap.com/usa/virginia/dulles/amazon-aws-iad-24224-quail/,Hyperscale,P2,394200.0
Amazon AWS IAD - 24178 Upper Woodside,virginia,38.948337,-77.522029,50.0,1.22,https://aws.amazon.com/compliance/data-center/data-centers/?utm_source=datacentermap.com,https://www.datacentermap.com/usa/virginia/dulles/aws-iad-24178-upper-woodside/,Hyperscale,P2,394200.0
Amazon AWS IAD - Light Speed Plz Campus,virginia,38.97997221438741,-77.49448672599559,50.0,1.22,https://aws.amazon.com/compliance/data-center/data-centers/?utm_source=datacentermap.com,https://www.datacentermap.com/usa/virginia/dulles/aws-iad-light-speed-plz-campus/,Hyperscale,P2,394200.0
Amazon AWS IAD - 42090 Reeds Farm Ln,virginia,38.94400038508837,-77.54995173821985,50.0,1.22,https://aws.amazon.com/es/compliance/data-center/controls/?utm_source=datacentermap.com,https://www.datacentermap.com/usa/virginia/dulles/amazon-aws-iad-42090-reeds-farm-ln/,Hyperscale,P2,394200.0
Amazon AWS IAD - 24214 Quail,virginia,38.949725,-77.55887,50.0,1.22,https://aws.amazon.com/compliance/data-center/data-centers/?utm_source=datacentermap.com,https://www.datacentermap.com/usa/virginia/dulles/amazon-aws-iad-24214-quail/,Hyperscale,P2,394200.0
Amazon AWS IAD - 43975 Light Speed Plz,virginia,38.9811136,-77.4942032,50.0,1.22,https://aws.amazon.com/compliance/data-center/data-centers/?utm_source=datacentermap.com,https://www.datacentermap.com/usa/virginia/dulles/aws-iad-43649-light-speed-plz-a/,Hyperscale,P2,394200.0
Amazon AWS IAD - 43649 Light Speed Plz,virginia,38.9794626,-77.4932681,50.0,1.22,https://aws.amazon.com/compliance/data-center/data-centers/?utm_source=datacentermap.com,https://www.datacentermap.com/usa/virginia/dulles/aws-iad-43649-light-speed-plz-b/,Hyperscale,P2,394200.0
Amazon AWS IAD - 22890 Platform,virginia,38.982388,-77.416795,50.0,1.22,https://aws.amazon.com/compliance/data-center/data-centers/?utm_source=datacentermap.com,https://www.datacentermap.com/usa/virginia/dulles/amazon-aws-iad-22890-platform/,Hyperscale,P2,394200.0
Amazon AWS IAD - 43855 Light Speed Plz,virginia,38.9806313,-77.495694,50.0,1.22,https://aws.amazon.com/compliance/data-center/data-centers/?utm_source=datacentermap.com,https://www.datacentermap.com/usa/virginia/dulles/aws-iad-43855-light-speed-plz-c/,Hyperscale,P2,394200.0
Amazon AWS IAD - 43765 Light Speed Plz,virginia,38.9789608,-77.4947328,50.0,1.22,https://aws.amazon.com/compliance/data-center/data-centers/?utm_source=datacentermap.com,https://www.datacentermap.com/usa/virginia/dulles/aws-iad-43765-light-speed-plz-d/,Hyperscale,P2,394200.0
Amazon AWS IAD - 22940 Platform,virginia,38.981531,-77.419376,50.0,1.22,https://aws.amazon.com/compliance/data-center/data-centers/?utm_source=datacentermap.com,https://www.datacentermap.com/usa/virginia/dulles/amazon-aws-iad-22940-platform/,Hyperscale,P2,394200.0
Amazon AWS IAD - Quail Campus,virginia,38.94897,-77.559564,50.0,1.22,https://aws.amazon.com/compliance/data-center/data-centers/?utm_source=datacentermap.com,https://www.datacentermap.com/usa/virginia/dulles/amazon-aws-iad-quail-campus/,Hyperscale,P2,394200.0
Amazon AWS IAD - 45775 Old Ox,virginia,38.979124,-77.420001,50.0,1.22,https://aws.amazon.com/compliance/data-center/data-centers/?utm_source=datacentermap.com,https://www.datacentermap.com/usa/virginia/dulles/amazon-aws-iad-45775-old-ox/,Hyperscale,P2,394200.0
Amazon AWS IAD - Platform & Old Ox Campus,virginia,38.980921,-77.418049,50.0,1.22,https://aws.amazon.com/compliance/data-center/data-centers/?utm_source=datacentermap.com,https://www.datacentermap.com/usa/virginia/dulles/aws-iad-platform-old-ox-campus/,Hyperscale,P2,394200.0
Amazon AWS IAD - 42948 Fadeley,virginia,38.94858,-77.520883,50.0,1.22,https://aws.amazon.com/compliance/data-center/data-centers/?utm_source=datacentermap.com,https://www.datacentermap.com/usa/virginia/dulles/amazon-aws-iad-42948-fadeley/,Hyperscale,P2,394200.0
Amazon AWS IAD - 45795 Old Ox,virginia,38.97956966803642,-77.41756320820016,50.0,1.22,https://aws.amazon.com/compliance/data-center/data-centers/?utm_source=datacentermap.com,https://www.datacentermap.com/usa/virginia/dulles/amazon-aws-iad-45795-old-ox/,Hyperscale,P2,394200.0
Amazon AWS IAD - 42949 Fadeley,virginia,38.949261,-77.519786,50.0,1.22,https://aws.amazon.com/compliance/data-center/data-centers/?utm_source=datacentermap.com,https://www.datacentermap.com/usa/virginia/dulles/amazon-aws-iad-42949-fadeley/,Hyperscale,P2,394200.0
Amazon AWS IAD - 24244 Quail,virginia,38.949941,-77.5604,50.0,1.22,https://aws.amazon.com/compliance/data-center/data-centers/?utm_source=datacentermap.com,https://www.datacentermap.com/usa/virginia/dulles/amazon-aws-iad-24244-quail/,Hyperscale,P2,394200.0
Amazon AWS IAD - 42800 Fadeley,virginia,38.946564,-77.522189,50.0,1.22,https://aws.amazon.com/compliance/data-center/data-centers/?utm_source=datacentermap.com,https://www.datacentermap.com/usa/virginia/dulles/amazon-aws-iad-42800-fadeley/,Hyperscale,P2,394200.0
Amazon AWS IAD - 22900 Platform,virginia,38.981433,-77.417378,50.0,1.22,https://aws.amazon.com/compliance/data-center/data-centers/?utm_source=datacentermap.com,https://www.datacentermap.com/usa/virginia/dulles/amazon-aws-iad-22900-platform/,Hyperscale,P2,394200.0
Amazon AWS IAD - 41992 John Mosby,virginia,38.94234942715915,-77.5505353525019,50.0,1.22,https://aws.amazon.com/compliance/data-center/data-centers/?utm_source=datacentermap.com,https://www.datacentermap.com/usa/virginia/dulles/amazon-aws-iad-41992-john-mosby/,Hyperscale,P2,394200.0
Amazon AWS IAD - 24185 Upper Woodside,virginia,38.947908,-77.523077,50.0,1.22,https://aws.amazon.com/compliance/data-center/data-centers/?utm_source=datacentermap.com,https://www.datacentermap.com/usa/virginia/dulles/aws-iad-24185-upper-woodside/,Hyperscale,P2,394200.0
Amazon AWS IAD - 43764 Light Speed Plz,virginia,38.9778469,-77.49385509999999,50.0,1.22,https://aws.amazon.com/compliance/data-center/data-centers/?utm_source=datacentermap.com,https://www.datacentermap.com/usa/virginia/dulles/amazon-aws-iad-43764-light-speed-plz/,Hyperscale,P2,394200.0
PowerHouse Arcola Campus,virginia,38.9441303,-77.5357,165.0,1.22,https://www.powerhousedata.com/data-center/powerhouse-arcola?utm_source=datacentermap.com,https://www.datacentermap.com/usa/virginia/dulles/powerhouse-arcola/,Hyperscale,P1,1300860.0
PowerHouse Arcola - Building A,virginia,38.943328535711,-77.53654062933256,1.0,1.91,https://www.powerhousedata.com/data-center/powerhouse-irving?utm_source=datacentermap.com,https://www.datacentermap.com/usa/virginia/dulles/powerhouse-arcola-building-a/,Small,P4,7884.0
PowerHouse Arcola - Building B,virginia,38.94408632072958,-77.53514802637979,1.0,1.91,https://www.powerhousedata.com/data-center/powerhouse-irving?utm_source=datacentermap.com,https://www.datacentermap.com/usa/virginia/dulles/powerhouse-arcola-building-b/,Small,P4,7884.0
43830 Devin Shafron Drive (IAD24),virginia,39.004182,-77.484108,6.8,1.91,,https://www.datacentermap.com/usa/virginia/ashburn/43830-devin-shafron-dr/,Small,P1,53611.200000000004
44521 Hastings Drive (ACC5),virginia,39.0201312,-77.4632058,36.4,1.22,,https://www.datacentermap.com/usa/virginia/ashburn/44521-hastings-drive/,Hyperscale,P1,286977.6
44461 Chilum Place (ACC6),virginia,39.0211326,-77.4635643,26.0,1.68,,https://www.datacentermap.com/usa/virginia/ashburn/44461-chilum-place/,Midsize/Colo,P1,204984.00000000003
44100 Digital Loudoun Plaza (IAD38),virginia,39.0010894,-77.4772202,16.9,1.68,,https://www.datacentermap.com/usa/virginia/ashburn/44100-digital-loudoun-plaza/,Midsize/Colo,P1,133239.6
44480 Hastings Drive (ACC4),virginia,39.0178075,-77.4624887,36.4,1.22,,https://www.datacentermap.com/usa/virginia/ashburn/44480-hastings-drive/,Hyperscale,P1,286977.6
43881 Devin Shafron Drive (IAD12),virginia,39.0019437,-77.4834425,9.0,1.91,,https://www.datacentermap.com/usa/virginia/ashburn/43915-devin-shafron-drive/,Small,P1,70956.0
44060 Digital Loudoun Plaza (IAD37),virginia,38.9999799,-77.4780558,19.8,1.68,,https://www.datacentermap.com/usa/virginia/ashburn/43940-digital-loudoun-plaza/,Midsize/Colo,P1,156103.2
21625 Gresham Drive (ACC7),virginia,39.0175221,-77.4656757,41.6,1.22,,https://www.datacentermap.com/usa/virginia/ashburn/21625-gresham-drive/,Hyperscale,P1,327974.4
44520 Hastings (ACC3),virginia,39.01994080297338,-77.45985046059216,13.9,1.68,,https://www.datacentermap.com/usa/virginia/ashburn/44520-hastings-acc3/,Midsize/Colo,P1,109587.59999999999
43940 Digital Loudoun Plaza (IAD35),virginia,39.0005693,-77.4805131,26.4,1.68,,https://www.datacentermap.com/usa/virginia/ashburn/43881-devin-shafron-drive/,Midsize/Colo,P1,208137.59999999998
43780 Digital Loudoun Plaza (IAD36),virginia,39.0015144,-77.479326,16.8,1.68,,https://www.datacentermap.com/usa/virginia/ashburn/43780-digital-loudoun-bldg-h/,Midsize/Colo,P1,132451.2
"44274 Round Table Plaza, Bldg L (IAD39)",virginia,39.0077105,-77.4676609,96.3,1.22,,https://www.datacentermap.com/usa/virginia/ashburn/44274-round-table-plaza-bldg-l/,Hyperscale,P1,759229.2000000001
44540 Round Table Plaza (IAD73),virginia,39.0065396,-77.4664235,16.0,1.68,,https://www.datacentermap.com/usa/virginia/ashburn/44540-round-table-plaza-iad73/,Midsize/Colo,P1,126144.0
43791 Devin Shafron Drive (IAD14),virginia,39.003285,-77.487214,6.9,1.91,,https://www.datacentermap.com/usa/virginia/ashburn/43791-devin-shafron-drive/,Small,P1,54399.600000000006
44490 Chillum (ACC2),virginia,39.02159832022906,-77.45927247433787,10.4,1.68,,https://www.datacentermap.com/usa/virginia/ashburn/44490-chillum-acc2/,Midsize/Colo,P1,81993.6
Cologix ASH1-S,virginia,39.01928455207471,-77.45761367327036,120.0,1.22,,https://www.datacentermap.com/usa/virginia/ashburn/cologix-ash1-s/,Hyperscale,P1,946080.0
21745 Sir Timothy (ACC9),virginia,39.0154045145503,-77.46719335083544,28.8,1.68,,https://www.datacentermap.com/usa/virginia/ashburn/21745-sir-timothy-acc9/,Midsize/Colo,P1,227059.2
43831 Devin Shafron (IAD13),virginia,39.00267079094796,-77.48537452075928,1.0,1.91,,https://www.datacentermap.com/usa/virginia/ashburn/43831-devin-shafron-iad13/,Small,P4,7884.0
21744 Sir Timothy (ACC10),virginia,39.01269813269297,-77.46556022349331,27.0,1.68,,https://www.datacentermap.com/usa/virginia/ashburn/21744-sir-timothy-acc10/,Midsize/Colo,P1,212868.0
"44372 Round Table Plaza, Bldg M (IAD40)",virginia,39.0064492,-77.4670489,24.0,1.68,,https://www.datacentermap.com/usa/virginia/ashburn/44372-round-table-plaza-bldg-m/,Midsize/Colo,P1,189216.0
"22124 Broderick Drive, Bldg R (IAD42)",virginia,39.005589,-77.449503,48.0,1.22,,https://www.datacentermap.com/usa/virginia/ashburn/22124-broderick-drive-r/,Hyperscale,P1,378432.0
44470 Chilum Place (IAD18),virginia,39.0219138,-77.46021429999999,1.0,1.91,,https://www.datacentermap.com/usa/virginia/ashburn/44470-chilum-place-iad18/,Small,P4,7884.0
21362 Smith Switch (ACC8),virginia,39.02404371446382,-77.46204425516646,15.0,1.68,,https://www.datacentermap.com/usa/virginia/ashburn/21362-smith-switch-acc8/,Midsize/Colo,P2,118260.0
"44751 Round Table Plaza, Bldg P (IAD41)",virginia,39.008276,-77.458637,1.0,1.91,,https://www.datacentermap.com/usa/virginia/ashburn/44751-round-table-plaza-p/,Small,P4,7884.0
GDC - Ashburn VA1 Data Center,virginia,39.022193,-77.455587,12.6,1.68,https://services.global.ntt/en-us/services-and-products/global-data-centers/global-locations/americas/ashburn-va-1-data-center?utm_source=datacentermap.com,https://www.datacentermap.com/usa/virginia/ashburn/ragingwire-ashburn/,Midsize/Colo,P1,99338.4
43915 Devin Shafron (IAD15),virginia,39.0026909,-77.48192,1.0,1.91,,https://www.datacentermap.com/usa/virginia/ashburn/44060-digital-loudoun-plaza/,Small,P4,7884.0
GDC - Ashburn VA2 Data Center,virginia,39.0249532,-77.4575832,14.0,1.68,https://datacenter.hello.global.ntt/en/location/ashburn/ashburn-va2-data-center?utm_source=datacentermap.com,https://www.datacentermap.com/usa/virginia/ashburn/ntt-ashburn-va2/,Midsize/Colo,P1,110376.0
GDC - Ashburn VA3 Data Center,virginia,39.0172073,-77.4704572,16.0,1.68,https://datacenter.hello.global.ntt/en/location/ashburn/ashburn-va3-data-center?utm_source=datacentermap.com,https://www.datacentermap.com/usa/virginia/ashburn/ntt-ashburn-va3/,Midsize/Colo,P1,126144.0
GDC - Ashburn VA4 Data Center,virginia,39.0198639,-77.47269,32.0,1.22,https://services.global.ntt/en-us/services-and-products/global-data-centers/global-locations/americas/ashburn-va-4-data-center?utm_source=datacentermap.com,https://www.datacentermap.com/usa/virginia/ashburn/ntt-ashburn-va4/,Hyperscale,P1,252288.0
GDC - Ashburn VA5 Data Center,virginia,39.0183108,-77.4727637,32.0,1.22,https://services.global.ntt/en-us/services-and-products/global-data-centers/global-locations/americas/ashburn-va-5-data-center?utm_source=datacentermap.com,https://www.datacentermap.com/usa/virginia/ashburn/ntt-ashburn-va5/,Hyperscale,P1,252288.0
Serverfarm Vienna DC2,virginia,38.9083838,-77.2197444,15.0,1.68,https://elementcritical.com/data-centers/northern-virginia/?utm_source=datacentermap.com,https://www.datacentermap.com/usa/virginia/ashburn/element-critical-va1/,Midsize/Colo,P1,118260.0
Csquare Ashburn Campus,virginia,39.021941,-77.453284,10.0,1.68,https://www.evoquedcs.com/data-centers/ashburn?utm_source=datacentermap.com,https://www.datacentermap.com/usa/virginia/ashburn/ashburn-wdc1/,Midsize/Colo,P1,78840.0
Equinix DC21,virginia,39.01186,-77.45448,15.0,1.68,https://www.equinix.com/?utm_source=datacentermap.com,https://www.datacentermap.com/usa/virginia/ashburn/equinix-dc21/,Midsize/Colo,P2,118260.0
Equinix DC11,virginia,39.0152031,-77.4594652,15.0,1.68,https://www.equinix.com/?utm_source=datacentermap.com,https://www.datacentermap.com/usa/virginia/ashburn/equinix-dc11/,Midsize/Colo,P2,118260.0
Csquare - Ashburn IAD4-A,virginia,39.022182,-77.453577,1.5,1.91,https://www.business.att.com/products/colocation.html?utm_source=datacentermap.com,https://www.datacentermap.com/usa/virginia/ashburn/att-21571-beaumeade/,Small,P1,11826.0
Equinix DC2,virginia,39.016494,-77.4592617,15.0,1.68,https://www.equinix.com/?utm_source=datacentermap.com,https://www.datacentermap.com/usa/virginia/ashburn/equinix-ashburn2/,Midsize/Colo,P2,118260.0
Equinix DC1,virginia,39.0155544,-77.4603448,15.0,1.68,https://www.equinix.com/?utm_source=datacentermap.com,https://www.datacentermap.com/usa/virginia/ashburn/equinix-ashburn1/,Midsize/Colo,P2,118260.0
SDC Ashburn - Building A,virginia,39.01539827769066,-77.4782544161659,50.0,1.22,https://sabeydatacenters.com/data-center-locations/ashburn-data-center/?utm_source=datacentermap.com,https://www.datacentermap.com/usa/virginia/ashburn/intergateashburn/,Hyperscale,P3,394200.0
Csquare - Ashburn IAD4-B,virginia,39.021799,-77.452678,1.5,1.91,https://www.business.att.com/products/colocation.html?utm_source=datacentermap.com,https://www.datacentermap.com/usa/virginia/ashburn/att-21561-beaumeade/,Small,P1,11826.0
Equinix DC12,virginia,39.0229665,-77.4497901,15.0,1.68,https://www.equinix.com/?utm_source=datacentermap.com,https://www.datacentermap.com/usa/virginia/ashburn/equinix-dc12/,Midsize/Colo,P2,118260.0
DataBank IAD1 - Ashburn,virginia,39.015513,-77.4817247,9.9,1.91,https://www.databank.com/?utm_source=datacentermap.com,https://www.datacentermap.com/usa/virginia/ashburn/latisys-ashburn/,Small,P1,78051.6
H5 Data Centers Ashburn,virginia,39.013682,-77.451713,60.0,1.22,https://h5datacenters.com/ashburn-data-center.html?utm_source=datacentermap.com,https://www.datacentermap.com/usa/virginia/ashburn/h5dc-ashburn/,Hyperscale,P1,473040.0
Equinix DC10,virginia,39.020867,-77.4513023,15.0,1.68,https://www.equinix.com/?utm_source=datacentermap.com,https://www.datacentermap.com/usa/virginia/ashburn/equinix-dc10/,Midsize/Colo,P2,118260.0
SDC Ashburn Campus,virginia,39.01445767840778,-77.4778646753925,85.0,1.35,https://sabeydatacenters.com/locations/ashburn-data-center?utm_source=datacentermap.com,https://www.datacentermap.com/usa/virginia/ashburn/sdc-ashburn-campus/,Hyperscale,P1,670140.0
Summit Ashburn,virginia,39.0041487,-77.4843702,1.0,1.91,https://www.summithq.com/data-centers/ashburn-virginia-data-center/?utm_source=datacentermap.com,https://www.datacentermap.com/usa/virginia/ashburn/deft-iad1-ashburn/,Small,P4,7884.0
Equinix DC4,virginia,39.0164848,-77.4619615,15.0,1.68,https://www.equinix.com/?utm_source=datacentermap.com,https://www.datacentermap.com/usa/virginia/ashburn/equinix-ashburn4/,Midsize/Colo,P2,118260.0
Equinix DC3,virginia,39.0221038,-77.460696,15.0,1.68,https://www.equinix.com/?utm_source=datacentermap.com,https://www.datacentermap.com/usa/virginia/ashburn/equinix-ashburn3/,Midsize/Colo,P2,118260.0
QTS Ashburn 3 DC1,virginia,38.99808959996076,-77.47561987108294,42.0,1.22,https://www.qtsdatacenters.com/?utm_source=datacentermap.com,https://www.datacentermap.com/usa/virginia/ashburn/qts-ash3-dc1/,Hyperscale,P1,331128.00000000006
Equinix DC13,virginia,39.01258,-77.475265,15.0,1.68,https://www.equinix.com/?utm_source=datacentermap.com,https://www.datacentermap.com/usa/virginia/ashburn/equinix-dc13/,Midsize/Colo,P2,118260.0
Equinix DC15,virginia,39.02293170869478,-77.44977402446722,15.0,1.68,https://www.equinix.com/?utm_source=datacentermap.com,https://www.datacentermap.com/usa/virginia/ashburn/equinix-dc15/,Midsize/Colo,P2,118260.0
Equinix DC5,virginia,39.015216,-77.457658,15.0,1.68,https://www.equinix.com/?utm_source=datacentermap.com,https://www.datacentermap.com/usa/virginia/ashburn/equinix-dc5/,Midsize/Colo,P2,118260.0
Equinix DC6,virginia,39.0152031,-77.4594652,15.0,1.68,https://www.equinix.com/?utm_source=datacentermap.com,https://www.datacentermap.com/usa/virginia/ashburn/equinix-dc6/,Midsize/Colo,P2,118260.0
Aligned IAD-02,virginia,39.010247,-77.4749719,120.0,1.22,https://aligneddc.com/ashburn/?utm_source=datacentermap.com,https://www.datacentermap.com/usa/virginia/ashburn/aligned-iad-02/,Hyperscale,P1,946080.0
EdgeCore Ashburn AS01,virginia,39.0218016,-77.4146767,72.0,1.25,https://edgecore.com/?utm_source=datacentermap.com,https://www.datacentermap.com/usa/virginia/ashburn/edgecore-ashburn-as01/,Hyperscale,P1,567648.0
Equinix DC16,virginia,39.02427666581032,-77.45240855773166,15.0,1.68,https://www.equinix.com/data-centers/americas-colocation/united-states-colocation/washington-dc-data-centers/dc16?utm_source=datacentermap.com,https://www.datacentermap.com/usa/virginia/ashburn/equinix-dc16/,Midsize/Colo,P2,118260.0
Rackspace Ashburn,virginia,39.0211431,-77.46355179999999,50.0,1.22,https://www.rackspace.com/about/data-centers/ashburn?utm_source=datacentermap.com,https://www.datacentermap.com/usa/virginia/ashburn/rackspace/,Hyperscale,P3,394200.0
QTS Ashburn 3 DC2,virginia,38.99862818684682,-77.47428413099419,42.0,1.22,https://www.qtsdatacenters.com/?utm_source=datacentermap.com,https://www.datacentermap.com/usa/virginia/ashburn/qts-ash3-dc2/,Hyperscale,P1,331128.00000000006
DataBank IAD3 - Ashburn Campus,virginia,39.01783,-77.48177,40.0,1.22,https://www.databank.com/data-centers/northern-virginia/ashburn-campus/iad3/?utm_source=datacentermap.com,https://www.datacentermap.com/usa/virginia/ashburn/databank-iad3/,Hyperscale,P1,315360.0
Aligned IAD-01,virginia,39.013328,-77.47145200000001,60.0,1.22,https://aligneddc.com/ashburn/?utm_source=datacentermap.com,https://www.datacentermap.com/usa/virginia/ashburn/aligned-iad-01/,Hyperscale,P1,473040.0
SDC Ashburn - Building C,virginia,39.0139352,-77.4767866,20.0,1.14,https://sabeydatacenters.com/?utm_source=datacentermap.com,https://www.datacentermap.com/usa/virginia/ashburn/intergate-ashburn/,AI Specialized,P3,157680.0
GDC - Ashburn VA7 Data Center,virginia,39.0157487,-77.4717019,36.0,1.22,https://services.global.ntt/en-us/services-and-products/global-data-centers/global-locations/americas/ashburn-va7-data-center?utm_source=datacentermap.com,https://www.datacentermap.com/usa/virginia/ashburn/ntt-ashburn-va7/,Hyperscale,P1,283824.0
SDC Ashburn - Building B,virginia,39.01450756214319,-77.47988976675335,50.0,1.22,https://sabeydatacenters.com/locations/ashburn-data-center?utm_source=datacentermap.com,https://www.datacentermap.com/usa/virginia/ashburn/sdc-ashburn-b/,Hyperscale,P3,394200.0
CloudHQ LC Campus,virginia,39.00989991162159,-77.46325166095652,1256.0,1.22,https://cloudhq.com/?utm_source=datacentermap.com,https://www.datacentermap.com/usa/virginia/ashburn/cloudhq-lc-campus/,Hyperscale,P1,9902304.0
GDC - Ashburn VA8 Data Center,virginia,39.018737,-77.4759974,20.4,1.68,https://services.global.ntt/en-us/services-and-products/global-data-centers/global-locations/americas/ashburn-data-centers?utm_source=datacentermap.com,https://www.datacentermap.com/usa/virginia/ashburn/ntt-ashburn-va8/,Midsize/Colo,P1,160833.6
DataBank IAD4 - Ashburn,virginia,39.0158838,-77.4831897,20.0,1.68,https://www.databank.com/data-centers/northern-virginia/ashburn-campus/iad4/?utm_source=datacentermap.com,https://www.datacentermap.com/usa/virginia/ashburn/databank-iad4-ashburn/,Midsize/Colo,P1,157680.0
GDC - Ashburn VA6 Data Center,virginia,39.0169872,-77.4734051,24.0,1.68,https://services.global.ntt/en-us/services-and-products/global-data-centers/global-locations/americas/ashburn-data-centers?utm_source=datacentermap.com,https://www.datacentermap.com/usa/virginia/ashburn/ntt-ashburn-va6/,Midsize/Colo,P1,189216.0
Quantum Connect,virginia,39.0113413,-77.4712498,20.0,1.68,https://www.powerhousedata.com/?utm_source=datacentermap.com,https://www.datacentermap.com/usa/virginia/ashburn/quantum-connect/,Midsize/Colo,P1,157680.0
CyrusOne NVA14,virginia,39.01963454166167,-77.45053166694414,60.0,1.22,https://www.powerhousedata.com/data-center/powerhouse-abx-1?utm_source=datacentermap.com,https://www.datacentermap.com/usa/virginia/ashburn/powerhouse-abx1/,Hyperscale,P1,473040.0
Remington Technology Park,virginia,38.540508,-77.789075,425.0,1.22,https://pointonecorp.com/remington-technology-park?utm_source=datacentermap.com,https://www.datacentermap.com/usa/virginia/ashburn/remington-technology-park/,Hyperscale,P1,3350700.0
CloudHQ LC8,virginia,39.002512,-77.468513,108.0,1.22,https://cloudhq.com/?utm_source=datacentermap.com,https://www.datacentermap.com/usa/virginia/ashburn/cloudhq-lc8/,Hyperscale,P1,851472.0
Google Loudoun County Campus,virginia,39.04946628823595,-77.5384608095923,50.0,1.22,https://www.google.com/about/datacenters/locations/loudoun-county/?utm_source=datacentermap.com,https://www.datacentermap.com/usa/virginia/ashburn/google-loudoun-county-campus/,Hyperscale,P2,394200.0
CloudHQ LC10,virginia,39.004371,-77.472825,108.0,1.22,https://cloudhq.com/?utm_source=datacentermap.com,https://www.datacentermap.com/usa/virginia/ashburn/cloudhq-lc10/,Hyperscale,P1,851472.0
Microsoft Compass Creek Campus,virginia,39.07516416519945,-77.56357256583598,180.0,1.22,https://datacenters.microsoft.com/?utm_source=datacentermap.com,https://www.datacentermap.com/usa/virginia/ashburn/microsoft-compass-creek-campus/,Hyperscale,P1,1419120.0
STACK Infrastructure NVA06A,virginia,39.0811496914989,-77.565116117741,72.0,1.22,https://www.stackinfra.com/locations/americas/northern-virginia/nva06/?utm_source=datacentermap.com,https://www.datacentermap.com/usa/virginia/ashburn/stack-infrastructure-nva06/,Hyperscale,P1,567648.0
CloudHQ LC11,virginia,39.006718,-77.478126,108.0,1.22,https://cloudhq.com/?utm_source=datacentermap.com,https://www.datacentermap.com/usa/virginia/ashburn/cloudhq-lc11/,Hyperscale,P1,851472.0
CloudHQ LC13,virginia,39.005048,-77.476645,108.0,1.22,https://cloudhq.com/?utm_source=datacentermap.com,https://www.datacentermap.com/usa/virginia/ashburn/cloudhq-lc13/,Hyperscale,P1,851472.0
CloudHQ LC3,virginia,39.0111472,-77.4605028,80.0,1.22,https://cloudhq.com/?utm_source=datacentermap.com,https://www.datacentermap.com/usa/virginia/ashburn/cloudhq-lc3/,Hyperscale,P1,630720.0
CloudHQ LC4,virginia,39.002908,-77.472159,180.0,1.22,https://cloudhq.com/?utm_source=datacentermap.com,https://www.datacentermap.com/usa/virginia/ashburn/cloudhq-lc4/,Hyperscale,P1,1419120.0
Microsoft - 41730 Inclusion Ln,virginia,39.0696069,-77.5607682,50.0,1.22,https://datacenters.microsoft.com/?utm_source=datacentermap.com,https://www.datacentermap.com/usa/virginia/ashburn/microsoft-41730-inclusion-ln/,Hyperscale,P2,394200.0
CloudHQ LC1,virginia,39.0101648,-77.4628056,144.0,1.22,https://cloudhq.com/?utm_source=datacentermap.com,https://www.datacentermap.com/usa/virginia/ashburn/cloudhq-lc1/,Hyperscale,P1,1135296.0
NTT Ashburn Campus,virginia,39.01910496631204,-77.47366667057929,50.0,1.22,https://services.global.ntt/en-us/services-and-products/global-data-centers?utm_source=datacentermap.com,https://www.datacentermap.com/usa/virginia/ashburn/ntt-ashburn-campus/,Hyperscale,P3,394200.0
CloudHQ LC12,virginia,39.00565,-77.478954,108.0,1.22,https://cloudhq.com/?utm_source=datacentermap.com,https://www.datacentermap.com/usa/virginia/ashburn/cloudhq-lc12/,Hyperscale,P1,851472.0
CloudHQ LC9,virginia,39.003981,-77.470626,108.0,1.22,https://cloudhq.com/?utm_source=datacentermap.com,https://www.datacentermap.com/usa/virginia/ashburn/cloudhq-lc9/,Hyperscale,P1,851472.0
CloudHQ LC14,virginia,39.006188,-77.475617,108.0,1.22,https://cloudhq.com/?utm_source=datacentermap.com,https://www.datacentermap.com/usa/virginia/ashburn/cloudhq-lc14/,Hyperscale,P1,851472.0
CloudHQ LC2,virginia,39.0117174,-77.4624862,96.0,1.22,https://cloudhq.com/?utm_source=datacentermap.com,https://www.datacentermap.com/usa/virginia/ashburn/cloudhq-lc2/,Hyperscale,P1,756864.0
Amazon AWS IAD - Import Campus,virginia,38.99613490157937,-77.47213440153939,50.0,1.22,https://aws.amazon.com/es/compliance/data-center/?utm_source=datacentermap.com,https://www.datacentermap.com/usa/virginia/ashburn/amazon-aws-iad-import-campus/,Hyperscale,P2,394200.0
Microsoft - 41720 Inclusion Ln,virginia,39.069618,-77.55943719999999,50.0,1.22,https://datacenters.microsoft.com/?utm_source=datacentermap.com,https://www.datacentermap.com/usa/virginia/ashburn/microsoft-41720-inclusion-ln/,Hyperscale,P2,394200.0
Compass Loudoun County I - Campus,virginia,39.0427647,-77.5394072,15.0,1.68,https://www.compassdatacenters.com/es/mercados/america-del-norte/virginia-del-norte/?utm_source=datacentermap.com,https://www.datacentermap.com/usa/virginia/ashburn/compass-loudoun-county-i/,Midsize/Colo,P2,118260.0
Dulles 28 Technology Park,virginia,39.00922061569657,-77.44271815586289,1.0,1.91,https://blackchambergroup.com/?utm_source=datacentermap.com,https://www.datacentermap.com/usa/virginia/ashburn/dulles-28-technology-park/,Small,P4,7884.0
Amazon AWS IAD - Loudoun County Campus,virginia,39.036013,-77.450214,50.0,1.22,https://aws.amazon.com/compliance/data-center/data-centers/?utm_source=datacentermap.com,https://www.datacentermap.com/usa/virginia/ashburn/aws-iad-loudoun-county-campus/,Hyperscale,P2,394200.0
Equinix DC22,virginia,39.01377210793382,-77.45376597765666,15.0,1.68,https://www.equinix.com/data-centers/americas-colocation/united-states-colocation/washington-dc-data-centers?utm_source=datacentermap.com,https://www.datacentermap.com/usa/virginia/ashburn/equinix-dc22/,Midsize/Colo,P2,118260.0
CloudHQ MCC1,virginia,38.717023,-77.4999271,1.0,1.91,http://www.cloudhq.com?utm_source=datacentermap.com,https://www.datacentermap.com/usa/virginia/ashburn/mcc1/,Small,P4,7884.0
Google Loudoun County Data Center 1,virginia,39.0526208,-77.5395419,50.0,1.08,https://www.google.com/about/datacenters/locations/loudoun-county/?utm_source=datacentermap.com,https://www.datacentermap.com/usa/virginia/ashburn/google-loudoun-county/,Hyperscale,P2,394200.0
Equinix DC17,virginia,39.0249174,-77.4534089,15.0,1.68,https://www.equinix.com/data-centers/americas-colocation/united-states-colocation/silicon-valley-data-centers?utm_source=datacentermap.com,https://www.datacentermap.com/usa/virginia/ashburn/equinix-dc17/,Midsize/Colo,P2,118260.0
Vantage VA3 - Ashburn III Campus,virginia,39.07763607854258,-77.50485300885215,288.0,1.22,https://vantage-dc.com/data-center-locations/north-america/ashburn-iii-virginia/?utm_source=datacentermap.com,https://www.datacentermap.com/usa/virginia/ashburn/vantage-va3-ashburn-iii-campus/,Hyperscale,P1,2270592.0
43790 Devin Shafron Dr,virginia,39.0050545,-77.4856124,20.0,1.14,https://www.menloequities.com/properties/43790-devin-shafron-dr-ashburn-virginia/?utm_source=datacentermap.com,https://www.datacentermap.com/usa/virginia/ashburn/43790-devin-shafron-dr/,AI Specialized,P3,157680.0
STACK Infrastructure Loudoun County Campus,virginia,38.95954855034142,-77.52843742136668,144.0,1.22,https://www.stackinfra.com/locations/americas/northern-virginia/loudoun-county/?utm_source=datacentermap.com,https://www.datacentermap.com/usa/virginia/ashburn/stack-infrastructure-loudoun-county/,Hyperscale,P1,1135296.0
STACK Infrastructure NVA01A,virginia,39.004711,-77.4417784,17.0,1.68,https://www.stackinfra.com/locations/americas/northern-virginia/nva01/?utm_source=datacentermap.com,https://www.datacentermap.com/usa/virginia/ashburn/ashburn2/,Midsize/Colo,P1,134028.0
Greenlin Park,virginia,39.05642332816744,-77.56393025258568,300.0,1.22,https://www.jklandholdings.net/?utm_source=datacentermap.com,https://www.datacentermap.com/usa/virginia/ashburn/greenlin-park/,Hyperscale,P1,2365200.0
Cross Mill Center,virginia,39.06355599649159,-77.54968172359906,1.0,1.91,https://www.jklandholdings.net/?utm_source=datacentermap.com,https://www.datacentermap.com/usa/virginia/ashburn/cross-mill-center/,Small,P4,7884.0
Amazon AWS IAD - 20935 Loudoun,virginia,39.036269,-77.449797,50.0,1.22,https://aws.amazon.com/compliance/data-center/data-centers/?utm_source=datacentermap.com,https://www.datacentermap.com/usa/virginia/ashburn/amazon-aws-iad-20935-loudoun/,Hyperscale,P2,394200.0
42277 Cochran Mill Rd,virginia,39.0747062,-77.51927069999999,50.0,1.22,https://sdccapitalpartners.com/?utm_source=datacentermap.com,https://www.datacentermap.com/usa/virginia/ashburn/42277-cochran-mill-rd/,Hyperscale,P3,394200.0
Amazon AWS IAD - 44854 Interconnection,virginia,39.02703070482402,-77.45280787413792,50.0,1.22,https://aws.amazon.com/compliance/data-center/data-centers/?utm_source=datacentermap.com,https://www.datacentermap.com/usa/virginia/ashburn/aws-iad-44854-interconnection/,Hyperscale,P2,394200.0
Google Loudoun County Data Center 2,virginia,39.05056751515701,-77.53998965572775,50.0,1.22,https://www.google.com/about/datacenters/locations/loudoun-county/?utm_source=datacentermap.com,https://www.datacentermap.com/usa/virginia/ashburn/google-loudoun-county2/,Hyperscale,P2,394200.0
Microsoft - 19515 Compass Creek,virginia,39.0747746,-77.5641169,50.0,1.22,https://datacenters.microsoft.com/?utm_source=datacentermap.com,https://www.datacentermap.com/usa/virginia/ashburn/microsoft-19515-compass-creek/,Hyperscale,P2,394200.0
NTT Ashburn VA9,virginia,39.02030041155722,-77.47521852914588,50.0,1.22,https://services.global.ntt/en-us/services-and-products/global-data-centers?utm_source=datacentermap.com,https://www.datacentermap.com/usa/virginia/ashburn/ntt-ashburn-va9/,Hyperscale,P3,394200.0
Amazon AWS IAD - Smith Campus,virginia,39.029116,-77.457607,50.0,1.22,https://aws.amazon.com/compliance/data-center/data-centers/?utm_source=datacentermap.com,https://www.datacentermap.com/usa/virginia/ashburn/amazon-aws-iad-smith-campus/,Hyperscale,P2,394200.0
Microsoft - 19525 Compass Creek,virginia,39.075422,-77.5629972,50.0,1.22,https://datacenters.microsoft.com/?utm_source=datacentermap.com,https://www.datacentermap.com/usa/virginia/ashburn/microsoft-19525-compass-creek/,Hyperscale,P2,394200.0
Amazon AWS IAD - 21320 Beaumeade Cir,virginia,39.01671948593827,-77.45203757714678,50.0,1.22,https://aws.amazon.com/es/compliance/data-center/controls/?utm_source=datacentermap.com,https://www.datacentermap.com/usa/virginia/ashburn/amazon-aws-iad-21320-beaumeade-cir/,Hyperscale,P2,394200.0
Amazon IAD - 44305 Import,virginia,38.995896,-77.471221,50.0,1.22,https://aws.amazon.com/es/compliance/data-center/?utm_source=datacentermap.com,https://www.datacentermap.com/usa/virginia/ashburn/amazon-iad-44305-import/,Hyperscale,P2,394200.0
Amazon AWS - George Washington Blvd,virginia,39.0580722,-77.4434909,50.0,1.22,https://aws.amazon.com/es/trust-center/data-center/?utm_source=datacentermap.com,https://www.datacentermap.com/usa/virginia/ashburn/amazon-aws-george-washington-blvd/,Hyperscale,P2,394200.0
LightEdge - Ashburn,virginia,39.0152031,-77.4594652,1.0,1.91,https://lightedge.com/data-centers/ashburn-data-center/?utm_source=datacentermap.com,https://www.datacentermap.com/usa/virginia/ashburn/lightedge-ashburn/,Small,P4,7884.0
Compass Loudoun County I - E,virginia,39.044178,-77.538132,15.0,1.68,https://www.compassdatacenters.com/markets/north-america/northern-virginia/?utm_source=datacentermap.com,https://www.datacentermap.com/usa/virginia/ashburn/compass-loudoun-county-i-e/,Midsize/Colo,P2,118260.0
Amazon AWS IAD - 44858 Interconnection,virginia,39.02662230407137,-77.4510268874296,50.0,1.22,https://aws.amazon.com/compliance/data-center/data-centers/?utm_source=datacentermap.com,https://www.datacentermap.com/usa/virginia/ashburn/aws-iad-44858-interconnection/,Hyperscale,P2,394200.0
Amazon AWS IAD - 21271 Smith,virginia,39.029578,-77.459637,50.0,1.22,https://aws.amazon.com/compliance/data-center/data-centers/?utm_source=datacentermap.com,https://www.datacentermap.com/usa/virginia/ashburn/amazon-aws-iad-21271-smith/,Hyperscale,P2,394200.0
CloudHQ LC5,virginia,39.009534,-77.477243,1.0,1.91,https://cloudhq.com/?utm_source=datacentermap.com,https://www.datacentermap.com/usa/virginia/ashburn/cloudhq-lc5/,Small,P4,7884.0
Lumen Ashburn,virginia,39.02217380441355,-77.4575642871464,15.0,1.68,https://www.lumen.com/es-es/edge-cloud/data-centers.html?utm_source=datacentermap.com,https://www.datacentermap.com/usa/virginia/ashburn/lumen-ashburn/,Midsize/Colo,P2,118260.0
Microsoft - 41700 Inclusion Ln (IAD4),virginia,39.06691550000001,-77.5585543,50.0,1.22,https://datacenters.microsoft.com/?utm_source=datacentermap.com,https://www.datacentermap.com/usa/virginia/ashburn/microsoft-41700-inclusion-ln/,Hyperscale,P2,394200.0
Amazon AWS IAD - 21263 Smith,virginia,39.02786,-77.457416,50.0,1.22,https://aws.amazon.com/compliance/data-center/data-centers/?utm_source=datacentermap.com,https://www.datacentermap.com/usa/virginia/ashburn/amazon-aws-iad-21263-smith/,Hyperscale,P2,394200.0
Amazon AWS IAD - 21310-21320 Beaumeade Cir,virginia,39.01632065732971,-77.45257626805177,50.0,1.22,https://aws.amazon.com/es/compliance/data-center/controls/?utm_source=datacentermap.com,https://www.datacentermap.com/usa/virginia/ashburn/aws-iad-21310-21320-beaumeade-cir/,Hyperscale,P2,394200.0
Amazon AWS IAD - 20945 Loudoun,virginia,39.035477,-77.450721,50.0,1.22,https://aws.amazon.com/compliance/data-center/data-centers/?utm_source=datacentermap.com,https://www.datacentermap.com/usa/virginia/ashburn/amazon-aws-iad-20945-loudoun/,Hyperscale,P2,394200.0
Amazon IAD - 44351 Import,virginia,38.995102,-77.471046,50.0,1.22,https://aws.amazon.com/es/compliance/data-center/?utm_source=datacentermap.com,https://www.datacentermap.com/usa/virginia/ashburn/amazon-iad-44351-import/,Hyperscale,P2,394200.0
Amazon AWS IAD - 44862 Interconnection,virginia,39.02648061346299,-77.44956776578906,50.0,1.22,https://aws.amazon.com/compliance/data-center/data-centers/?utm_source=datacentermap.com,https://www.datacentermap.com/usa/virginia/ashburn/aws-iad-44862-interconnection/,Hyperscale,P2,394200.0
Compass Loudoun County I - B,virginia,39.043312,-77.540611,15.0,1.68,https://www.compassdatacenters.com/markets/north-america/northern-virginia/?utm_source=datacentermap.com,https://www.datacentermap.com/usa/virginia/ashburn/compass-loudoun-county-i-b/,Midsize/Colo,P2,118260.0
Tech Park at Brambleton,virginia,38.95645674249057,-77.53512112011552,1.0,1.91,https://blackchambergroup.com/?utm_source=datacentermap.com,https://www.datacentermap.com/usa/virginia/ashburn/tech-park-at-brambleton/,Small,P4,7884.0
Compass Loudoun County I - D,virginia,39.042456,-77.538416,15.0,1.68,https://www.compassdatacenters.com/markets/north-america/northern-virginia/?utm_source=datacentermap.com,https://www.datacentermap.com/usa/virginia/ashburn/compass-loudoun-county-i-d/,Midsize/Colo,P2,118260.0
Microsoft - 41700 Inclusion Ln (IAD6),virginia,39.064862,-77.558003,50.0,1.22,https://datacenters.microsoft.com/?utm_source=datacentermap.com,https://www.datacentermap.com/usa/virginia/ashburn/microsoft-41700-inclusion-ln-bldg-2/,Hyperscale,P2,394200.0
Windstream Ashburn,virginia,39.0149741,-77.47405119999999,1.0,1.91,https://www.windstreamwholesale.com/solutions/?utm_source=datacentermap.com,https://www.datacentermap.com/usa/virginia/ashburn/windstream-ashburn/,Small,P4,7884.0
Amazon AWS IAD - Interconnection Campus,virginia,39.02659947976149,-77.45141847598957,50.0,1.22,https://aws.amazon.com/compliance/data-center/data-centers/?utm_source=datacentermap.com,https://www.datacentermap.com/usa/virginia/ashburn/aws-iad-interconnection-campus/,Hyperscale,P2,394200.0
QTS Ashburn 3 Campus,virginia,38.99847653870452,-77.47490640348629,80.0,1.22,https://www.qtsdatacenters.com/?utm_source=datacentermap.com,https://www.datacentermap.com/usa/virginia/ashburn/qts-ashburn-shellhorn-campus/,Hyperscale,P1,630720.0
Amazon AWS - 41789 Cochran Mill Rd,virginia,39.06835466867474,-77.52811589181938,50.0,1.22,https://aws.amazon.com/es/compliance/data-center/controls/?utm_source=datacentermap.com,https://www.datacentermap.com/usa/virginia/ashburn/amazon-aws-41789-cochran-mill-rd/,Hyperscale,P2,394200.0
Amazon IAD - 44254 Import,virginia,38.996532,-77.473185,50.0,1.22,https://aws.amazon.com/es/compliance/data-center/?utm_source=datacentermap.com,https://www.datacentermap.com/usa/virginia/ashburn/amazon-iad-44254-import/,Hyperscale,P2,394200.0
Compass Loudoun County I - C,virginia,39.041708,-77.539347,15.0,1.68,https://www.compassdatacenters.com/markets/north-america/northern-virginia/?utm_source=datacentermap.com,https://www.datacentermap.com/usa/virginia/ashburn/compass-loudoun-county-i-c/,Midsize/Colo,P2,118260.0
Compass Loudoun County I - A,virginia,39.043644,-77.539284,15.0,1.68,https://www.compassdatacenters.com/markets/north-america/northern-virginia/?utm_source=datacentermap.com,https://www.datacentermap.com/usa/virginia/ashburn/compass-loudoun-county-i-a/,Midsize/Colo,P2,118260.0
STACK Infrastructure NVA06B,virginia,39.07945616706608,-77.56441375874996,1.0,1.91,https://www.stackinfra.com/locations/americas/northern-virginia/nva06/?utm_source=datacentermap.com,https://www.datacentermap.com/usa/virginia/ashburn/stack-infrastructure-nva06b/,Small,P4,7884.0
Amazon AWS IAD - 21267 Smith,virginia,39.028702,-77.458316,50.0,1.22,https://aws.amazon.com/compliance/data-center/data-centers/?utm_source=datacentermap.com,https://www.datacentermap.com/usa/virginia/ashburn/amazon-aws-iad-21267-smith/,Hyperscale,P2,394200.0
Amazon AWS IAD - 21310 Beaumeade Cir,virginia,39.01583,-77.45324099999999,50.0,1.22,https://aws.amazon.com/es/compliance/data-center/controls/?utm_source=datacentermap.com,https://www.datacentermap.com/usa/virginia/ashburn/amazon-aws-iad-21310-beaumeade-cir/,Hyperscale,P2,394200.0
Visa Ashburn,virginia,39.0487466,-77.4454221,1.0,1.91,https://usa.visa.com/?utm_source=datacentermap.com,https://www.datacentermap.com/usa/virginia/ashburn/visa-ashburn/,Small,P4,7884.0
STACK Infrastructure Loudoun County - Building 2,virginia,38.95971733663299,-77.52555493348244,72.0,1.22,https://www.stackinfra.com/locations/americas/northern-virginia/loudoun-county/?utm_source=datacentermap.com,https://www.datacentermap.com/usa/virginia/ashburn/stack-loudoun-county-building-2/,Hyperscale,P1,567648.0
STACK Infrastructure Loudoun County - Building 1,virginia,38.95990121688683,-77.53103547209835,72.0,1.22,https://www.stackinfra.com/locations/americas/northern-virginia/loudoun-county/?utm_source=datacentermap.com,https://www.datacentermap.com/usa/virginia/ashburn/stack-loudoun-county-building-1/,Hyperscale,P1,567648.0
19886 Ashburn Rd,virginia,39.0665229,-77.47890249999999,1.0,1.91,https://www.jklandholdings.net/?utm_source=datacentermap.com,https://www.datacentermap.com/usa/virginia/ashburn/19886-ashburn-rd/,Small,P4,7884.0
Tuscarora Crossing Campus,virginia,39.07826722402647,-77.53426945902078,1.0,1.91,https://blackchambergroup.com/?utm_source=datacentermap.com,https://www.datacentermap.com/usa/virginia/ashburn/tuscarora-crossing-campus/,Small,P4,7884.0
CyrusOne NVA - Broadlands Campus,virginia,39.03273471179797,-77.52197662533504,15.0,1.68,https://www.cyrusone.com/?utm_source=datacentermap.com,https://www.datacentermap.com/usa/virginia/ashburn/cyrusone-broadlands-campus/,Midsize/Colo,P2,118260.0
20335 Celtic Park Drive (Campus),virginia,39.05611006832117,-77.54579963553444,1.0,1.91,https://www.tarealty.com/?utm_source=datacentermap.com,https://www.datacentermap.com/usa/virginia/ashburn/20335-celtic-park-drive/,Small,P4,7884.0
Tuscarora Crossing Bldg 3,virginia,39.077082,-77.535422,1.0,1.91,https://blackchambergroup.com/?utm_source=datacentermap.com,https://www.datacentermap.com/usa/virginia/ashburn/tuscarora-crossing-bldg-3/,Small,P4,7884.0
CyrusOne NVA - Broadlands Building 3,virginia,39.03367667990798,-77.52297706639736,15.0,1.68,https://www.cyrusone.com/?utm_source=datacentermap.com,https://www.datacentermap.com/usa/virginia/ashburn/cyrusone-broadlands-building-3/,Midsize/Colo,P2,118260.0
CyrusOne NVA - Broadlands Building 1,virginia,39.03143359769798,-77.5239547701628,15.0,1.68,https://www.cyrusone.com/?utm_source=datacentermap.com,https://www.datacentermap.com/usa/virginia/ashburn/cyrusone-broadlands-building-1/,Midsize/Colo,P2,118260.0
CyrusOne NVA - Broadlands Building 4,virginia,39.03234614629483,-77.52130966462684,15.0,1.68,https://www.cyrusone.com/?utm_source=datacentermap.com,https://www.datacentermap.com/usa/virginia/ashburn/cyrusone-broadlands-building-4/,Midsize/Colo,P2,118260.0
Tuscarora Crossing Bldg 1,virginia,39.077793,-77.532388,1.0,1.91,https://blackchambergroup.com/?utm_source=datacentermap.com,https://www.datacentermap.com/usa/virginia/ashburn/tuscarora-crossing-bldg-1/,Small,P4,7884.0
Tuscarora Crossing Bldg 2,virginia,39.077531,-77.533613,1.0,1.91,https://blackchambergroup.com/?utm_source=datacentermap.com,https://www.datacentermap.com/usa/virginia/ashburn/tuscarora-crossing-bldg-2/,Small,P4,7884.0
CyrusOne NVA - Broadlands Building 2,virginia,39.03237558315019,-77.52358339431392,15.0,1.68,https://www.cyrusone.com/?utm_source=datacentermap.com,https://www.datacentermap.com/usa/virginia/ashburn/cyrusone-broadlands-building-2/,Midsize/Colo,P2,118260.0
Gulick Mill Campus,virginia,39.043636,-77.558242,1.0,1.91,,https://www.datacentermap.com/usa/virginia/ashburn/gulick-mill-campus/,Small,P4,7884.0
20335 Celtic Park Drive (Building 2),virginia,39.05600029502848,-77.54712331564622,1.0,1.91,https://www.tarealty.com/?utm_source=datacentermap.com,https://www.datacentermap.com/usa/virginia/ashburn/20335-celtic-park-drive-building-2/,Small,P4,7884.0
Gulick Mill Campus - Building 2,virginia,39.04207,-77.558877,1.0,1.91,,https://www.datacentermap.com/usa/virginia/ashburn/gulick-mill-campus-building-2/,Small,P4,7884.0
20335 Celtic Park Drive (Building 3),virginia,39.0556210768862,-77.54479723700318,1.0,1.91,https://www.tarealty.com/?utm_source=datacentermap.com,https://www.datacentermap.com/usa/virginia/ashburn/20335-celtic-park-drive-building-3/,Small,P4,7884.0
Gulick Mill Campus - Building 1,virginia,39.04395,-77.560244,1.0,1.91,,https://www.datacentermap.com/usa/virginia/ashburn/gulick-mill-campus-building-1/,Small,P4,7884.0
365 Data Centers - Herndon,virginia,38.9343841,-77.428724,0.83,1.91,https://365datacenters.com/?utm_source=datacentermap.com,https://www.datacentermap.com/usa/virginia/herndon/dulles-exchange/,Small,P1,6543.72
20335 Celtic Park Drive (Building 1),virginia,39.05758700148322,-77.54659641385416,1.0,1.91,https://www.tarealty.com/?utm_source=datacentermap.com,https://www.datacentermap.com/usa/virginia/ashburn/20335-celtic-park-drive-building-1/,Small,P4,7884.0
H5 Data Centers Herndon,virginia,38.9628751,-77.3767578,15.0,1.68,https://h5datacenters.com/herndon-data-center.html?utm_source=datacentermap.com,https://www.datacentermap.com/usa/virginia/herndon/h5-data-centers-herndon/,Midsize/Colo,P2,118260.0
Cogent Data Center - Herndon,virginia,38.962567,-77.381386,2.0,1.91,https://www.cogentco.com/en/cogent-northern-virginia?utm_source=datacentermap.com,https://www.datacentermap.com/usa/virginia/herndon/cogent-herndon/,Small,P1,15768.0
Aptum Herndon,virginia,38.9504306,-77.3971521,1.0,1.91,https://aptum.com/services/colocation/herndon-data-center/?utm_source=datacentermap.com,https://www.datacentermap.com/usa/virginia/herndon/aptum-herndon/,Small,P1,7884.0
Amazon AWS IAD - EDS Campus,virginia,38.9242746,-77.4278885,50.0,1.22,https://aws.amazon.com/es/compliance/data-center/?utm_source=datacentermap.com,https://www.datacentermap.com/usa/virginia/herndon/amazon-aws-iad-eds-campus/,Hyperscale,P2,394200.0
Menlo Digital MD-DC1 (Herndon),virginia,38.9270284,-77.4242369,48.0,1.22,https://menlo-digital.com/portfolio/md-dc1-herndon/?utm_source=datacentermap.com,https://www.datacentermap.com/usa/virginia/herndon/menlo-digital-md-dc1-herndon/,Hyperscale,P1,378432.0
Amazon AWS IAD - 13600 EDS C,virginia,38.923178,-77.426237,50.0,1.22,https://aws.amazon.com/es/compliance/data-center/?utm_source=datacentermap.com,https://www.datacentermap.com/usa/virginia/herndon/amazon-aws-iad-13600-eds-c/,Hyperscale,P2,394200.0
Amazon AWS IAD166 - 13600 EDS B,virginia,38.921199,-77.426674,50.0,1.22,https://aws.amazon.com/es/compliance/data-center/?utm_source=datacentermap.com,https://www.datacentermap.com/usa/virginia/herndon/amazon-aws-iad-13600-eds-b/,Hyperscale,P2,394200.0
Lumen Herndon 3,virginia,38.9658597,-77.3814333,15.0,1.68,https://www.lumen.com/?utm_source=datacentermap.com,https://www.datacentermap.com/usa/virginia/herndon/level3-herndon3/,Midsize/Colo,P2,118260.0
Amazon AWS IAD165 - 13600 EDS A,virginia,38.92235183694539,-77.42738605510408,50.0,1.22,https://aws.amazon.com/compliance/data-center/data-centers/?utm_source=datacentermap.com,https://www.datacentermap.com/usa/virginia/herndon/amazon-aws-iad-13600-eds/,Hyperscale,P2,394200.0
Amazon AWS IAD501 - 13876 Redskin Drive,virginia,38.9362365,-77.4250879,50.0,1.22,https://aws.amazon.com/compliance/data-center/data-centers/?utm_source=datacentermap.com,https://www.datacentermap.com/usa/virginia/herndon/amazon-aws-iad-501-13876-redskin-drive/,Hyperscale,P2,394200.0
Lumen Herdon 1,virginia,38.9660539,-77.381806,15.0,1.68,https://www.lumen.com/?utm_source=datacentermap.com,https://www.datacentermap.com/usa/virginia/herndon/level3-herdon1/,Midsize/Colo,P2,118260.0
Amazon AWS IAD500 - 13860 Redskin Drive,virginia,38.9368233,-77.4243443,50.0,1.22,https://aws.amazon.com/compliance/data-center/data-centers/?utm_source=datacentermap.com,https://www.datacentermap.com/usa/virginia/herndon/amazon-aws-iad-500-13860-redskin-drive/,Hyperscale,P2,394200.0
Lumen Herdon 2,virginia,38.956698,-77.381837,15.0,1.68,https://www.lumen.com/?utm_source=datacentermap.com,https://www.datacentermap.com/usa/virginia/herndon/level3-herdon2/,Midsize/Colo,P2,118260.0
Amazon AWS IAD - Renaissance Park,virginia,38.93570087225842,-77.42415901457284,50.0,1.22,https://aws.amazon.com/compliance/data-center/data-centers/?utm_source=datacentermap.com,https://www.datacentermap.com/usa/virginia/herndon/amazon-aws-iad-renaissance-park/,Hyperscale,P2,394200.0
Cogent Data Center - Vienna,virginia,38.9129715,-77.2272716,0.4,1.91,https://www.cogentco.com/en/cogent-northern-virginia?utm_source=datacentermap.com,https://www.datacentermap.com/usa/virginia/vienna-virginia/cogent-vienna/,Small,P1,3153.6000000000004
DataBank IAD2 - McLean,virginia,38.9198982,-77.213588,3.0,1.91,https://www.databank.com/data-centers/northern-virginia/mclean/?utm_source=datacentermap.com,https://www.datacentermap.com/usa/virginia/vienna-virginia/databank-iad2/,Small,P1,23652.0
8100 Boone Boulevard,virginia,38.91372014907486,-77.22591421448347,0.4,1.91,,https://www.datacentermap.com/usa/virginia/vienna-virginia/8100-boone-boulevard/,Small,P1,3153.6000000000004
Equinix DC7,virginia,38.9093627,-77.22044369999999,15.0,1.68,https://www.equinix.com/?utm_source=datacentermap.com,https://www.datacentermap.com/usa/virginia/vienna-virginia/switchdata-vienna2/,Midsize/Colo,P2,118260.0
Superb DCA2 - McLean,virginia,38.921683,-77.2272009,15.0,1.68,https://www.superb.net/?utm_source=datacentermap.com,https://www.datacentermap.com/usa/virginia/vienna-virginia/dca2-mclean/,Midsize/Colo,P3,118260.0
NetEx NDC01,virginia,38.9333586,-77.2378123,1.0,1.91,http://NetExInc.com?utm_source=datacentermap.com,https://www.datacentermap.com/usa/virginia/vienna-virginia/ndc01/,Small,P4,7884.0
ATI  DC-2,virginia,38.9212181,-77.2127055,50.0,1.22,https://www.atisolutions.com?utm_source=datacentermap.com,https://www.datacentermap.com/usa/virginia/vienna-virginia/ati-dc1/,Hyperscale,P3,394200.0
CherryRoad DCA2,virginia,38.9222964,-77.2273149,1.0,1.91,https://hopone.cherryroad.com/data-centers/dca2/?utm_source=datacentermap.com,https://www.datacentermap.com/usa/virginia/vienna-virginia/cherryroad-dca2/,Small,P4,7884.0
Lumen McLean,virginia,38.9200209,-77.2116578,15.0,1.68,https://www.lumen.com/?utm_source=datacentermap.com,https://www.datacentermap.com/usa/virginia/vienna-virginia/level3-mclean1/,Midsize/Colo,P2,118260.0
Serverfarm Vienna DC1,virginia,38.9089579,-77.2196502,50.0,1.22,https://www.serverfarmllc.com/united-states-data-centers/?utm_source=datacentermap.com,https://www.datacentermap.com/usa/virginia/vienna-virginia/serverfarm-vienna-dc1/,Hyperscale,P3,394200.0
Serverfarm Vienna Cloud,virginia,38.90883923433751,-77.22009651856133,50.0,1.22,https://www.serverfarmllc.com/united-states-data-centers/?utm_source=datacentermap.com,https://www.datacentermap.com/usa/virginia/vienna-virginia/serverfarm-vienna-cloud/,Hyperscale,P3,394200.0
22574 Pacific Blvd (IAD55),virginia,38.98968199999999,-77.43471600000001,1.0,1.91,,https://www.datacentermap.com/usa/virginia/sterling/digital-realty-sterling/,Small,P4,7884.0
CyrusOne NVA9 - Sterling,virginia,38.958671,-77.5052149,135.0,1.22,https://www.cyrusone.com/data-centers/north-america/sterling-virginia-nva9?utm_source=datacentermap.com,https://www.datacentermap.com/usa/virginia/sterling/cyrusone-nva9/,Hyperscale,P1,1064340.0
44820 Prentice (IAD43),virginia,39.00183006258693,-77.4524772079501,1.0,1.91,,https://www.datacentermap.com/usa/virginia/sterling/44820-prentice-iad43/,Small,P4,7884.0
CyrusOne NVA8 - Sterling,virginia,39.0211136,-77.4133574,24.0,1.68,https://www.cyrusone.com/data-centers/north-america/sterling-virginia-nva8?utm_source=datacentermap.com,https://www.datacentermap.com/usa/virginia/sterling/cyrusone-nva8/,Midsize/Colo,P1,189216.0
CyrusOne NVA5 - Sterling,virginia,39.02422747310928,-77.43332634100067,105.0,1.22,https://www.cyrusone.com/data-centers/north-america/sterling-va-nva5-nva7?utm_source=datacentermap.com,https://www.datacentermap.com/usa/virginia/sterling/cyrusone-nva5/,Hyperscale,P1,827820.0
CyrusOne NVA7 - Sterling,virginia,39.02609425119419,-77.43404310940451,150.0,1.22,https://www.cyrusone.com/data-centers/north-america/sterling-va-nva5-nva7?utm_source=datacentermap.com,https://www.datacentermap.com/usa/virginia/sterling/cyrusone-nva7/,Hyperscale,P1,1182600.0
CyrusOne Virginia Campus,virginia,39.02542071743534,-77.41394234404247,48.0,1.22,https://www.cyrusone.com/?utm_source=datacentermap.com,https://www.datacentermap.com/usa/virginia/sterling/cyrusone-nva1-3-campus/,Hyperscale,P1,378432.0
QTS Ashburn-Moran DC2,virginia,38.9942906,-77.4478098,6.0,1.91,https://qtsdatacenters.com/data-centers/ashburn-moran?utm_source=datacentermap.com,https://www.datacentermap.com/usa/virginia/sterling/qts-ashburn-moran/,Small,P1,47304.0
CyrusOne NVA4 - Sterling,virginia,38.984666,-77.425827,12.6,1.68,https://www.cyrusone.com/data-centers/north-america/sterling-virginia-nva4?utm_source=datacentermap.com,https://www.datacentermap.com/usa/virginia/sterling/cyrusone-nva4/,Midsize/Colo,P1,99338.4
Csquare - Sterling IAD1-C,virginia,39.024769,-77.412271,4.8,1.91,https://centersquaredc.com/data-centers/northern-virginia?utm_source=datacentermap.com,https://www.datacentermap.com/usa/virginia/sterling/cyxtera-iad1c/,Small,P1,37843.200000000004
Csquare - Sterling IAD2-A,virginia,38.984363,-77.423605,2.0,1.91,https://centersquaredc.com/data-centers/northern-virginia#sterling-iad2?utm_source=datacentermap.com,https://www.datacentermap.com/usa/virginia/sterling/cyxtera-iad2a/,Small,P1,15768.0
Csquare - Sterling IAD1-A,virginia,39.023323,-77.413135,1.8,1.91,https://centersquaredc.com/data-centers/northern-virginia?utm_source=datacentermap.com,https://www.datacentermap.com/usa/virginia/sterling/cyxtera-iad1a/,Small,P1,14191.2
Csquare - Sterling IAD3-A,virginia,38.980441,-77.44415,2.0,1.91,https://centersquaredc.com/data-centers/northern-virginia#sterling-iad3?utm_source=datacentermap.com,https://www.datacentermap.com/usa/virginia/sterling/cyxtera-iad3a/,Small,P1,15768.0
CyrusOne NVA1 - Sterling,virginia,39.025792088356006,-77.41462387809602,15.0,1.68,https://www.cyrusone.com/data-centers/north-america/sterling-va-nva1-nva3?utm_source=datacentermap.com,https://www.datacentermap.com/usa/virginia/sterling/cyrusone-sterling/,Midsize/Colo,P2,118260.0
EdgeCore Ashburn AS02,virginia,38.9947719,-77.4443082,42.0,1.25,https://edgecore.com/locations/ashburn/?utm_source=datacentermap.com,https://www.datacentermap.com/usa/virginia/sterling/edgecore-ashburn-as02/,Hyperscale,P1,331128.00000000006
Csquare - Sterling IAD2-B,virginia,38.983931,-77.424651,6.0,1.91,https://centersquaredc.com/data-centers/northern-virginia#sterling-iad2?utm_source=datacentermap.com,https://www.datacentermap.com/usa/virginia/sterling/cyxtera-iad2b/,Small,P1,47304.0
Csquare - Sterling IAD1-B,virginia,39.024059,-77.41512,4.8,1.91,https://centersquaredc.com/data-centers/northern-virginia?utm_source=datacentermap.com,https://www.datacentermap.com/usa/virginia/sterling/cyxtera-iad1b/,Small,P1,37843.200000000004
QTS Ashburn 1 DC1,virginia,38.99955586121173,-77.45024935853806,55.0,1.22,https://qtsdatacenters.com/data-centers/ashburn-broderick?utm_source=datacentermap.com,https://www.datacentermap.com/usa/virginia/sterling/qts-ashburn/,Hyperscale,P1,433620.0
Vantage VA2 - Ashburn II Campus,virginia,38.9985435,-77.4284906,96.0,1.22,https://vantage-dc.com/?utm_source=datacentermap.com,https://www.datacentermap.com/usa/virginia/sterling/vantage-va2-campus/,Hyperscale,P1,756864.0
Menlo Digital MD-DC2 (Sterling),virginia,38.99953413782657,-77.44533804548144,96.0,1.22,https://menlo-digital.com/portfolio/md-dc2-sterling/?utm_source=datacentermap.com,https://www.datacentermap.com/usa/virginia/sterling/menlo-digital-md-dc2-sterling/,Hyperscale,P1,756864.0
Skybox Nova One,virginia,38.9893002,-77.4489528,30.0,1.22,https://skyboxdatacenters.com/locations/skybox-nova?utm_source=datacentermap.com,https://www.datacentermap.com/usa/virginia/sterling/skybox-nova-one/,Hyperscale,P1,236520.0
Corscale Kincora,virginia,39.0378025,-77.4335136,72.0,1.25,https://corscale.com/kincora/?utm_source=datacentermap.com,https://www.datacentermap.com/usa/virginia/sterling/corscale-kincora/,Hyperscale,P1,567648.0
CyrusOne NVA2 - Sterling,virginia,39.026457880853,-77.41438759073819,15.0,1.68,https://www.cyrusone.com/data-centers/north-america/sterling-va-nva1-nva3?utm_source=datacentermap.com,https://www.datacentermap.com/usa/virginia/sterling/cyrusone-nva2/,Midsize/Colo,P2,118260.0
Vantage VA1 - Ashburn I Campus,virginia,39.00193001787986,-77.4391140117989,206.0,1.22,https://vantage-dc.com/data-center-locations/north-america/ashburn-i-virginia/?utm_source=datacentermap.com,https://www.datacentermap.com/usa/virginia/sterling/vantage-va1-campus/,Hyperscale,P1,1624104.0
CyrusOne NVA3 - Sterling,virginia,39.02513628924854,-77.4147148202385,15.0,1.68,https://www.cyrusone.com/data-centers/north-america/sterling-va-nva1-nva3?utm_source=datacentermap.com,https://www.datacentermap.com/usa/virginia/sterling/cyrusone-nva3/,Midsize/Colo,P2,118260.0
Amazon AWS IAD - Erins Run Campus,virginia,38.95847495684595,-77.49875311214257,50.0,1.22,https://aws.amazon.com/compliance/data-center/data-centers/?utm_source=datacentermap.com,https://www.datacentermap.com/usa/virginia/sterling/amazon-aws-iad-erins-run-campus/,Hyperscale,P2,394200.0
Amazon AWS - 45965-45975 Nokes Blvd,virginia,39.02234,-77.410177,50.0,1.22,https://aws.amazon.com/es/?utm_source=datacentermap.com,https://www.datacentermap.com/usa/virginia/sterling/amazon-aws-45965-nokes-blvd/,Hyperscale,P2,394200.0
Google Arcola Campus,virginia,38.9434999,-77.5267438,50.0,1.22,https://www.google.com/about/datacenters/?utm_source=datacentermap.com,https://www.datacentermap.com/usa/virginia/sterling/google-arcola-campus/,Hyperscale,P2,394200.0
Microsoft - 42010 Growth Mindset Ln,virginia,38.95200120025035,-77.55551976909665,50.0,1.22,https://datacenters.microsoft.com/?utm_source=datacentermap.com,https://www.datacentermap.com/usa/virginia/sterling/microsoft-42010-growth-mindset-ln/,Hyperscale,P2,394200.0
Maries Tech Park,virginia,39.02376869516043,-77.41833986538849,50.0,1.22,https://www.copt.com/data/?utm_source=datacentermap.com,https://www.datacentermap.com/usa/virginia/sterling/maries-tech-park/,Hyperscale,P3,394200.0
Microsoft - 41840 Growth Mindset Ln,virginia,38.9483644,-77.5558896,50.0,1.22,https://datacenters.microsoft.com/?utm_source=datacentermap.com,https://www.datacentermap.com/usa/virginia/sterling/microsoft-41840-growth-mindset-ln/,Hyperscale,P2,394200.0
Amazon AWS - 46020 Manekin Plaza,virginia,39.0239514,-77.4078877,50.0,1.22,https://aws.amazon.com/es/?utm_source=datacentermap.com,https://www.datacentermap.com/usa/virginia/sterling/amazon-aws-46020-manekin-plaza/,Hyperscale,P2,394200.0
Prologis Executive Dr,virginia,38.98999136053257,-77.44347528227908,1.0,1.91,https://www.prologis.com/?utm_source=datacentermap.com,https://www.datacentermap.com/usa/virginia/sterling/prologis-executive-dr/,Small,P4,7884.0
Amazon AWS IAD - Atlantic Blvd Campus,virginia,39.03124564523246,-77.42834700368634,50.0,1.22,https://aws.amazon.com/compliance/data-center/data-centers/?utm_source=datacentermap.com,https://www.datacentermap.com/usa/virginia/sterling/aws-iad-atlantic-blvd-campus/,Hyperscale,P2,394200.0
Amazon AWS IAD - Relocation Campus,virginia,38.986583,-77.442336,50.0,1.22,https://aws.amazon.com/compliance/data-center/data-centers/?utm_source=datacentermap.com,https://www.datacentermap.com/usa/virginia/sterling/amazon-aws-iad-relocation-campus/,Hyperscale,P2,394200.0
Microsoft - 42031 Growth Mindset Ln,virginia,38.9501533,-77.5559483,50.0,1.22,https://datacenters.microsoft.com/?utm_source=datacentermap.com,https://www.datacentermap.com/usa/virginia/sterling/microsoft-42031-growth-mindset-ln/,Hyperscale,P2,394200.0
PowerHouse Pacific Campus,virginia,39.004648,-77.447214,265.0,1.22,https://www.powerhousedata.com/data-center/powerhouse-pacific?utm_source=datacentermap.com,https://www.datacentermap.com/usa/virginia/sterling/powerhouse-pacific/,Hyperscale,P1,2089260.0
Microsoft Growth Mindset Campus,virginia,38.95020331761594,-77.55482294789314,50.0,1.22,https://datacenters.microsoft.com/?utm_source=datacentermap.com,https://www.datacentermap.com/usa/virginia/sterling/microsoft-growth-mindset-campus/,Hyperscale,P2,394200.0
Amazon AWS IAD - Charles View Campus,virginia,39.017223,-77.43816,50.0,1.22,https://aws.amazon.com/compliance/data-center/data-centers/?utm_source=datacentermap.com,https://www.datacentermap.com/usa/virginia/sterling/amazon-aws-iad-charles-v-campus/,Hyperscale,P2,394200.0
Aligned IAD-03,virginia,38.98849831093195,-77.44064142545633,72.0,1.22,https://aligneddc.com/es/norte-de-virginia/?utm_source=datacentermap.com,https://www.datacentermap.com/usa/virginia/sterling/aligned-iad-03/,Hyperscale,P1,567648.0
PointOne Ashburn Data Center Campus,virginia,39.008395,-77.4325999,83.0,1.22,https://pointonecorp.com/ashburn-data-center-campus?utm_source=datacentermap.com,https://www.datacentermap.com/usa/virginia/sterling/pointone-ashburn-data-center-campus/,Hyperscale,P1,654372.0
PointOne Sterling,virginia,39.01984376350097,-77.42774404569792,50.0,1.22,https://www.pointonecorp.com/?utm_source=datacentermap.com,https://www.datacentermap.com/usa/virginia/sterling/pointone-sterling/,Hyperscale,P3,394200.0
Vantage VA15,virginia,39.0007446,-77.437319,15.0,1.68,https://vantage-dc.com/?utm_source=datacentermap.com,https://www.datacentermap.com/usa/virginia/sterling/vantage-va15/,Midsize/Colo,P2,118260.0
Amazon AWS IAD - 45110 Loudoun,virginia,38.991802,-77.441077,50.0,1.22,https://aws.amazon.com/compliance/data-center/data-centers/?utm_source=datacentermap.com,https://www.datacentermap.com/usa/virginia/sterling/amazon-aws-iad-45110-loudoun/,Hyperscale,P2,394200.0
Vantage VA11,virginia,39.0023934,-77.437778,15.0,1.68,https://vantage-dc.com/?utm_source=datacentermap.com,https://www.datacentermap.com/usa/virginia/sterling/vantage-va11/,Midsize/Colo,P2,118260.0
Amazon AWS IAD - Severn & Squire Campus,virginia,39.020857,-77.434063,50.0,1.22,https://aws.amazon.com/compliance/data-center/data-centers/?utm_source=datacentermap.com,https://www.datacentermap.com/usa/virginia/sterling/aws-iad-severn-squire-campus/,Hyperscale,P2,394200.0
Amazon AWS IAD - 45220 Prologis,virginia,38.991491,-77.436564,50.0,1.22,https://aws.amazon.com/compliance/data-center/data-centers/?utm_source=datacentermap.com,https://www.datacentermap.com/usa/virginia/sterling/amazon-aws-iad-45220-prologis/,Hyperscale,P2,394200.0
Amazon AWS IAD - 21205 Atlantic Blvd,virginia,39.030378,-77.429063,50.0,1.22,https://aws.amazon.com/compliance/data-center/data-centers/?utm_source=datacentermap.com,https://www.datacentermap.com/usa/virginia/sterling/aws-iad-21205-atlantic-blvd/,Hyperscale,P2,394200.0
Prologis 45120 Global Plaza,virginia,38.9875796,-77.4391223,1.0,1.91,https://www.prologis.com/?utm_source=datacentermap.com,https://www.datacentermap.com/usa/virginia/sterling/prologis-45120-global-plaza/,Small,P4,7884.0
Amazon AWS IAD - 22760 Pacific,virginia,38.98675918989868,-77.43526066332728,50.0,1.22,https://aws.amazon.com/compliance/data-center/data-centers/?utm_source=datacentermap.com,https://www.datacentermap.com/usa/virginia/sterling/amazon-aws-iad-22760-pacific/,Hyperscale,P2,394200.0
Amazon AWS IAD - Pathfinder Campus,virginia,38.987238,-77.412518,50.0,1.22,https://aws.amazon.com/compliance/data-center/data-centers/?utm_source=datacentermap.com,https://www.datacentermap.com/usa/virginia/sterling/amazon-aws-iad-pathfinder-campus/,Hyperscale,P2,394200.0
Amazon AWS IAD - 45210 Prologis,virginia,38.990742,-77.437359,50.0,1.22,https://aws.amazon.com/compliance/data-center/data-centers/?utm_source=datacentermap.com,https://www.datacentermap.com/usa/virginia/sterling/amazon-aws-iad-45210-prologis/,Hyperscale,P2,394200.0
Amazon AWS IAD - 21195 Atlantic Blvd,virginia,39.032242,-77.429674,50.0,1.22,https://aws.amazon.com/compliance/data-center/data-centers/?utm_source=datacentermap.com,https://www.datacentermap.com/usa/virginia/sterling/aws-iad-21195-atlantic-blvd/,Hyperscale,P2,394200.0
QTS Ashburn-Lockridge DC1,virginia,38.99584300000001,-77.455348,15.0,1.68,https://www.qtsdatacenters.com/?utm_source=datacentermap.com,https://www.datacentermap.com/usa/virginia/sterling/qts-ashburn-lockridge/,Midsize/Colo,P2,118260.0
COPT MP-2,virginia,39.024329,-77.420441,50.0,1.22,https://www.copt.com/data/?utm_source=datacentermap.com,https://www.datacentermap.com/usa/virginia/sterling/copt-mp-2/,Hyperscale,P3,394200.0
Amazon AWS IAD - 22755 Relocation,virginia,38.98698,-77.442691,50.0,1.22,https://aws.amazon.com/compliance/data-center/data-centers/?utm_source=datacentermap.com,https://www.datacentermap.com/usa/virginia/sterling/amazon-aws-iad-22755-relocation/,Hyperscale,P2,394200.0
23540 Pebble Run Pl,virginia,38.967587,-77.501845,1.0,1.91,https://datacenters.microsoft.com/?utm_source=datacentermap.com,https://www.datacentermap.com/usa/virginia/sterling/23540-pebble-run-pl/,Small,P4,7884.0
Google Arcola Data Center 3,virginia,38.9446661462705,-77.526807418068,50.0,1.22,https://www.google.com/about/datacenters/?utm_source=datacentermap.com,https://www.datacentermap.com/usa/virginia/sterling/google-arcola-data-center-3/,Hyperscale,P2,394200.0
Amazon AWS IAD - 22520 Randolph,virginia,38.9938501993005,-77.45041434613738,50.0,1.22,https://aws.amazon.com/compliance/data-center/data-centers/?utm_source=datacentermap.com,https://www.datacentermap.com/usa/virginia/sterling/amazon-aws-iad-22520-randolph/,Hyperscale,P2,394200.0
Amazon AWS IAD - 45305 Severn,virginia,39.019168,-77.434083,50.0,1.22,https://aws.amazon.com/compliance/data-center/data-centers/?utm_source=datacentermap.com,https://www.datacentermap.com/usa/virginia/sterling/aws-iad-45305-severn/,Hyperscale,P2,394200.0
Windstream Sterling,virginia,39.0237529,-77.3922558,1.0,1.91,https://www.windstreamwholesale.com/solutions/?utm_source=datacentermap.com,https://www.datacentermap.com/usa/virginia/sterling/windstream-sterling/,Small,P4,7884.0
Amazon AWS IAD - 23825 Erins,virginia,38.957821,-77.4981,50.0,1.22,https://aws.amazon.com/compliance/data-center/data-centers/?utm_source=datacentermap.com,https://www.datacentermap.com/usa/virginia/sterling/amazon-aws-iad-23825-erins/,Hyperscale,P2,394200.0
Amazon AWS IAD - Prologis Campus,virginia,38.990953,-77.436878,50.0,1.22,https://aws.amazon.com/compliance/data-center/data-centers/?utm_source=datacentermap.com,https://www.datacentermap.com/usa/virginia/sterling/amazon-aws-iad-prologis-campus/,Hyperscale,P2,394200.0
Amazon AWS IAD - 1304 Squire,virginia,39.021556,-77.434812,50.0,1.22,https://aws.amazon.com/compliance/data-center/data-centers/?utm_source=datacentermap.com,https://www.datacentermap.com/usa/virginia/sterling/aws-iad-1304-squire/,Hyperscale,P2,394200.0
Amazon AWS IAD - 45111 Loudoun,virginia,38.990932,-77.441914,50.0,1.22,https://aws.amazon.com/compliance/data-center/data-centers/?utm_source=datacentermap.com,https://www.datacentermap.com/usa/virginia/sterling/amazon-aws-iad-45111-loudoun/,Hyperscale,P2,394200.0
Amazon AWS IAD - 22651 Dulles,virginia,38.990663,-77.448802,50.0,1.22,https://aws.amazon.com/compliance/data-center/data-centers/?utm_source=datacentermap.com,https://www.datacentermap.com/usa/virginia/sterling/amazon-aws-iad-22651-dulles/,Hyperscale,P2,394200.0
Amazon AWS IAD - Dulles Campus,virginia,38.99034,-77.447482,50.0,1.22,https://aws.amazon.com/compliance/data-center/data-centers/?utm_source=datacentermap.com,https://www.datacentermap.com/usa/virginia/sterling/amazon-aws-iad-dulles-campus/,Hyperscale,P2,394200.0
COPT MP-1,virginia,39.023616,-77.419118,50.0,1.22,https://www.copt.com/data/?utm_source=datacentermap.com,https://www.datacentermap.com/usa/virginia/sterling/copt-mp-1/,Hyperscale,P3,394200.0
Amazon AWS IAD - 23845 Erins,virginia,38.955875,-77.497272,50.0,1.22,https://aws.amazon.com/compliance/data-center/data-centers/?utm_source=datacentermap.com,https://www.datacentermap.com/usa/virginia/sterling/amazon-aws-iad-23845-erins/,Hyperscale,P2,394200.0
Amazon AWS IAD - 22631 Dulles,virginia,38.991732,-77.448535,50.0,1.22,https://aws.amazon.com/compliance/data-center/data-centers/?utm_source=datacentermap.com,https://www.datacentermap.com/usa/virginia/sterling/amazon-aws-iad-22631-dulles/,Hyperscale,P2,394200.0
Amazon AWS IAD - 22945 International,virginia,38.981697,-77.427284,50.0,1.22,https://aws.amazon.com/compliance/data-center/data-centers/?utm_source=datacentermap.com,https://www.datacentermap.com/usa/virginia/sterling/aws-iad-22945-international/,Hyperscale,P2,394200.0
Amazon AWS IAD - Loudoun Downs Campus,virginia,38.991418,-77.441584,50.0,1.22,https://aws.amazon.com/compliance/data-center/data-centers/?utm_source=datacentermap.com,https://www.datacentermap.com/usa/virginia/sterling/aws-iad-loudoun-downs-campus/,Hyperscale,P2,394200.0
Vantage VA13,virginia,39.0030244,-77.4403628,15.0,1.68,https://vantage-dc.com/?utm_source=datacentermap.com,https://www.datacentermap.com/usa/virginia/sterling/vantage-va13/,Midsize/Colo,P2,118260.0
Vantage VA12,virginia,39.0018501,-77.4380712,15.0,1.68,https://vantage-dc.com/?utm_source=datacentermap.com,https://www.datacentermap.com/usa/virginia/sterling/vantage-va12/,Midsize/Colo,P2,118260.0
Amazon AWS IAD - 22868 International,virginia,38.982535,-77.424631,50.0,1.22,https://aws.amazon.com/compliance/data-center/data-centers/?utm_source=datacentermap.com,https://www.datacentermap.com/usa/virginia/sterling/aws-iad-22868-international/,Hyperscale,P2,394200.0
Google Arcola Data Center 1,virginia,38.94300921473193,-77.52443625926428,50.0,1.22,https://www.google.com/about/datacenters/?utm_source=datacentermap.com,https://www.datacentermap.com/usa/virginia/sterling/google-arcola-data-center-1/,Hyperscale,P2,394200.0
Amazon AWS IAD - 21710 Charles View,virginia,39.016121,-77.438347,50.0,1.22,https://aws.amazon.com/compliance/data-center/data-centers/?utm_source=datacentermap.com,https://www.datacentermap.com/usa/virginia/sterling/amazon-aws-iad-21710-charles-view/,Hyperscale,P2,394200.0
Amazon AWS IAD - 45360 Severn,virginia,39.021685,-77.432992,50.0,1.22,https://aws.amazon.com/compliance/data-center/data-centers/?utm_source=datacentermap.com,https://www.datacentermap.com/usa/virginia/sterling/aws-iad-45360-severn/,Hyperscale,P2,394200.0
Amazon AWS IAD - 21645 Charles View,virginia,39.016953,-77.439301,50.0,1.22,https://aws.amazon.com/compliance/data-center/data-centers/?utm_source=datacentermap.com,https://www.datacentermap.com/usa/virginia/sterling/amazon-aws-iad-21645-charles-view/,Hyperscale,P2,394200.0
Amazon AWS IAD - 45950 Pathfinder,virginia,38.986955,-77.410408,50.0,1.22,https://aws.amazon.com/compliance/data-center/data-centers/?utm_source=datacentermap.com,https://www.datacentermap.com/usa/virginia/sterling/amazon-aws-iad-45950-pathfinder/,Hyperscale,P2,394200.0
Amazon AWS IAD - 23005 International,virginia,38.979938,-77.425482,50.0,1.22,https://aws.amazon.com/compliance/data-center/data-centers/?utm_source=datacentermap.com,https://www.datacentermap.com/usa/virginia/sterling/aws-iad-23005-international/,Hyperscale,P2,394200.0
Amazon AWS IAD - 21660 Charles View,virginia,39.015273,-77.437838,50.0,1.22,https://aws.amazon.com/compliance/data-center/data-centers/?utm_source=datacentermap.com,https://www.datacentermap.com/usa/virginia/sterling/amazon-aws-iad-21660-charles-view/,Hyperscale,P2,394200.0
Amazon AWS IAD - 21641 Charles View,virginia,39.018534,-77.438795,50.0,1.22,https://aws.amazon.com/compliance/data-center/data-centers/?utm_source=datacentermap.com,https://www.datacentermap.com/usa/virginia/sterling/amazon-aws-iad-21641-charles-view/,Hyperscale,P2,394200.0
Vantage VA21,virginia,38.99711513995007,-77.42934773514203,15.0,1.68,https://vantage-dc.com/?utm_source=datacentermap.com,https://www.datacentermap.com/usa/virginia/sterling/vantage-va21/,Midsize/Colo,P2,118260.0
Amazon AWS IAD - 45900 Pathfinder,virginia,38.987804,-77.411203,50.0,1.22,https://aws.amazon.com/compliance/data-center/data-centers/?utm_source=datacentermap.com,https://www.datacentermap.com/usa/virginia/sterling/amazon-aws-iad-45900-pathfinder/,Hyperscale,P2,394200.0
Amazon AWS IAD - 45930 Pathfinder,virginia,38.988568,-77.411758,50.0,1.22,https://aws.amazon.com/compliance/data-center/data-centers/?utm_source=datacentermap.com,https://www.datacentermap.com/usa/virginia/sterling/amazon-aws-iad-45930-pathfinder/,Hyperscale,P2,394200.0
Amazon AWS IAD - 22745 Relocation,virginia,38.986235,-77.441876,50.0,1.22,https://aws.amazon.com/compliance/data-center/data-centers/?utm_source=datacentermap.com,https://www.datacentermap.com/usa/virginia/sterling/amazon-aws-iad-22745-relocation/,Hyperscale,P2,394200.0
Vantage VA22,virginia,38.99751479842982,-77.4301326351421,15.0,1.68,https://vantage-dc.com/?utm_source=datacentermap.com,https://www.datacentermap.com/usa/virginia/sterling/vantage-va22/,Midsize/Colo,P2,118260.0
Amazon AWS IAD - 23835 Erins,virginia,38.956789,-77.497617,50.0,1.22,https://aws.amazon.com/compliance/data-center/data-centers/?utm_source=datacentermap.com,https://www.datacentermap.com/usa/virginia/sterling/amazon-aws-iad-23835-erins/,Hyperscale,P2,394200.0
COPT MP-3,virginia,39.02299554523893,-77.4174020929728,50.0,1.22,https://www.copt.com/data/?utm_source=datacentermap.com,https://www.datacentermap.com/usa/virginia/sterling/copt-mp-3/,Hyperscale,P3,394200.0
Vantage VA14,virginia,39.0028702,-77.4394651,15.0,1.68,https://vantage-dc.com/?utm_source=datacentermap.com,https://www.datacentermap.com/usa/virginia/sterling/vantage-va14/,Midsize/Colo,P2,118260.0
